{"version": 0.6, "generator": "Overpass API 0.7.62.11 87bfad18", "osm3s": {"timestamp_osm_base": "2026-04-24T05:34:05Z", "copyright": "The data included in this document is from www.openstreetmap.org. The data is made available under ODbL."}, "elements": [{"type": "node", "id": 4538371064, "lat": 19.4845338, "lon": 84.3937297, "tags": {"amenity": "place_of_worship", "name": "Taptapani temple", "religion": "hindu"}}, {"type": "node", "id": 5592208721, "lat": 19.5604779, "lon": 84.5615455, "tags": {"amenity": "place_of_worship", "name": "Balinkaswara Temple", "religion": "hindu"}}, {"type": "node", "id": 6687891887, "lat": 19.20022, "lon": 84.6386658, "tags": {"addr:city": "Radhamohanpur", "addr:postcode": "761010", "amenity": "place_of_worship", "denomination": "hindu", "name": "BalaKumari Temple", "religion": "hindu"}}, {"type": "node", "id": 7108931788, "lat": 19.2691856, "lon": 84.2600614, "tags": {"amenity": "place_of_worship", "name": "Chandragiri"}}, {"type": "node", "id": 7205956296, "lat": 19.4362845, "lon": 84.4701768, "tags": {"addr:district": "Ganjam", "addr:full": "Near Ri Office Pudamari", "addr:postcode": "761014", "addr:state": "Odisha", "addr:subdistrict": "Hinjili", "amenity": "hospital", "description": "Government Hospital", "name": "Government Hospital, Pudamari", "source": "OpenGovernmentData"}}, {"type": "node", "id": 7208206966, "lat": 19.4509402, "lon": 84.5962729, "tags": {"addr:district": "Puri", "addr:full": "Patapur Sector", "addr:postcode": "761013", "addr:state": "Odisha", "addr:subdistrict": "Kakatpur", "amenity": "hospital", "description": "Government Hospital", "name": "Government Hospital Patapur", "source": "OpenGovernmentData"}}, {"type": "node", "id": 7208590968, "lat": 19.4213088, "lon": 84.6046065, "tags": {"addr:district": "Ganjam", "addr:full": "Near Sahaspur Sc", "addr:postcode": "761012", "addr:state": "Odisha", "addr:subdistrict": "Hinjili", "amenity": "hospital", "description": "Government Hospital", "name": "Government Hospital, Sahaspur", "source": "OpenGovernmentData"}}, {"type": "node", "id": 7214446329, "lat": 19.1633217, "lon": 84.52952, "tags": {"addr:district": "Ganjam", "addr:full": "Near Shiva Temple, Near Water Tank, Sumandi, Subani", "addr:postcode": "761209", "addr:state": "Odisha", "addr:subdistrict": "Nuagaon", "amenity": "hospital", "description": "Government Hospital", "name": "Government Hospital, Sumandi", "source": "OpenGovernmentData"}}, {"type": "node", "id": 7710220457, "lat": 19.2562429, "lon": 84.2712622, "tags": {"addr:district": "Gajapati", "addr:full": "Anangadangara", "addr:postcode": "761017", "addr:state": "Odhisa", "amenity": "hospital", "name": "Men-Lha Hospital", "source": "Local Knowledge"}}, {"type": "node", "id": 7715905889, "lat": 19.2011951, "lon": 84.6004222, "tags": {"addr:district": "Ganjam", "addr:full": "Chikiti Pentha, Chikiti", "addr:postcode": "761010", "addr:state": "Odhisa", "amenity": "clinic", "name": "Kiran Subudhi Clinic", "source": "Local Knowledge"}}, {"type": "node", "id": 7715905921, "lat": 19.3769165, "lon": 84.5703306, "tags": {"addr:district": "Ganjam", "addr:full": "Diagpahandi", "addr:postcode": "761012", "addr:state": "Odhisa", "amenity": "clinic", "name": "Kalyani Clinic", "source": "Local Knowledge"}}, {"type": "node", "id": 7715905930, "lat": 19.2003137, "lon": 84.6148294, "tags": {"addr:district": "Ganjam", "addr:full": "Chikiti", "addr:postcode": "761010", "addr:state": "Odhisa", "amenity": "hospital", "name": "Sachidananda Hospital", "source": "Local Knowledge"}}, {"type": "node", "id": 7942368227, "lat": 19.357093, "lon": 84.6282391}, {"type": "node", "id": 7942368228, "lat": 19.3568893, "lon": 84.6286133}, {"type": "node", "id": 7942368229, "lat": 19.3569272, "lon": 84.6286576}, {"type": "node", "id": 7942368230, "lat": 19.3570196, "lon": 84.6287313}, {"type": "node", "id": 7942368231, "lat": 19.357055, "lon": 84.6286951}, {"type": "node", "id": 7942368232, "lat": 19.3571765, "lon": 84.6287555}, {"type": "node", "id": 7942368233, "lat": 19.357335, "lon": 84.6283263}, {"type": "node", "id": 7942406335, "lat": 19.3517573, "lon": 84.6311293}, {"type": "node", "id": 7942406336, "lat": 19.351797, "lon": 84.6311737}, {"type": "node", "id": 7942406337, "lat": 19.351808, "lon": 84.6312028}, {"type": "node", "id": 7942406338, "lat": 19.351765, "lon": 84.6312379}, {"type": "node", "id": 7942406339, "lat": 19.3517254, "lon": 84.6312519}, {"type": "node", "id": 7942406340, "lat": 19.3516868, "lon": 84.6312566}, {"type": "node", "id": 7942406341, "lat": 19.3516714, "lon": 84.631218}, {"type": "node", "id": 7942406342, "lat": 19.3517034, "lon": 84.6311632}, {"type": "node", "id": 7942406343, "lat": 19.3517309, "lon": 84.631134}, {"type": "node", "id": 10277323250, "lat": 19.2734338, "lon": 84.2634305, "tags": {"addr:city": "Jeerango", "addr:postcode": "761017", "amenity": "place_of_worship", "name": "Padmasambhava Mahavihara Monastery", "name:or": "\u0b2a\u0b26\u0b4d\u0b2e\u0b38\u0b2e\u0b4d\u0b2d\u0b2c \u0b2e\u0b39\u0b3e \u0b2c\u0b4c\u0b26\u0b4d\u0b27 \u0b2c\u0b3f\u0b39\u0b3e\u0b30", "religion": "buddhist", "wikidata": "Q7123865", "wikipedia": "en:Padmasambhava Mahavihara monastery"}}, {"type": "node", "id": 10279620296, "lat": 19.2602056, "lon": 84.2686239, "tags": {"addr:city": "LOBERSING", "addr:postcode": "761017", "addr:street": "Way to Jeerango (Jirang)", "amenity": "place_of_worship", "name": "Namkha Khyung Dzong Monastery", "religion": "buddhist"}}, {"type": "node", "id": 10279620297, "lat": 19.2590197, "lon": 84.2674896, "tags": {"addr:city": "LOBERSING", "addr:postcode": "761017", "amenity": "place_of_worship", "name": "Oddyana Zangdogpalri Project", "religion": "buddhist"}}, {"type": "node", "id": 10279620298, "lat": 19.2586014, "lon": 84.2686524, "tags": {"addr:city": "LOBERSING", "addr:postcode": "761017", "addr:street": "Way to Jeerango (Jirang)", "amenity": "place_of_worship", "name": "Dundul Raptenling", "religion": "buddhist"}}, {"type": "node", "id": 10279623842, "lat": 19.2365867, "lon": 84.2725841, "tags": {"addr:city": "Mahendragada", "addr:postcode": "761017", "amenity": "place_of_worship", "name": "Neydo Kagyu Monastery", "religion": "buddhist"}}, {"type": "node", "id": 13260743675, "lat": 19.4595897, "lon": 84.4244802, "tags": {"addr:city": "Sanakhemundi", "addr:district": "Ganjam", "addr:postcode": "761014", "addr:street": "Ganjam", "amenity": "place_of_worship", "denomination": "hindu", "loc_name:or": "\u0b2e\u0b3e\u0b01 \u0b2c\u0b47\u0b39\u0b47\u0b30\u0b3e\u0b2a\u0b3e\u0b24\u0b4d\u0b30 \u0b2e\u0b28\u0b4d\u0b26\u0b3f\u0b30", "name": "Maa BeheraPatra Temple", "religion": "hindu"}}, {"type": "way", "id": 851543785, "nodes": [7942368227, 7942368228, 7942368229, 7942368230, 7942368231, 7942368232, 7942368233, 7942368227], "tags": {"amenity": "place_of_worship", "building": "yes", "name": "Shiv Temple Area", "religion": "hindu"}}, {"type": "way", "id": 851546762, "nodes": [7942406335, 7942406336, 7942406337, 7942406338, 7942406339, 7942406340, 7942406341, 7942406342, 7942406343, 7942406335], "tags": {"amenity": "place_of_worship", "building": "yes", "name": "Amooru Gudi ( Amooru Temple)", "religion": "hindu"}}]}