{"version": 0.6, "generator": "Overpass API 0.7.62.11 87bfad18", "osm3s": {"timestamp_osm_base": "2026-04-24T05:28:00Z", "copyright": "The data included in this document is from www.openstreetmap.org. The data is made available under ODbL."}, "elements": [{"type": "node", "id": 7012050279, "lat": 22.2765789, "lon": 86.7154205, "tags": {"addr:district": "East Singhbhum", "addr:full": "At/Po/Ps. Baharagora, Jamshedpur Jamshedpur Jamshedpur", "addr:postcode": "832101", "addr:state": "Jharkhand", "amenity": "hospital", "name": "Dr P K Ghosh Memorial Hospital and Research Center", "source": "OpenGovernmentData"}}, {"type": "node", "id": 7012380397, "lat": 22.2756295, "lon": 86.7232794, "tags": {"addr:district": "East Singhbhum", "addr:full": "Boaragora, E.Singhbhum", "addr:postcode": "832101", "addr:state": "Jharkhand", "amenity": "hospital", "healthcare": "hospital", "name": "Rabindra Nath Panni Memorial Hospital", "source": "OpenGovernmentData"}}, {"type": "node", "id": 7199853212, "lat": 22.199572, "lon": 86.899479, "tags": {"addr:district": "Paschim Medinipur", "addr:full": "Gopiballavpur Ssh, Gopiballavpur", "addr:postcode": "721506", "addr:state": "West Bengal", "addr:subdistrict": "GOPIBALLAVPUR - I", "amenity": "hospital", "name": "Gopiballavpur hospital", "source": "OpenGovernmentData"}}, {"type": "node", "id": 7199853310, "lat": 22.3113965, "lon": 86.884349, "tags": {"addr:district": "Paschim Medinipur", "addr:full": "Near State Bank Of India, Chichra, Jhargram", "addr:postcode": "721507", "addr:state": "West Bengal", "addr:subdistrict": "JAMBONI", "amenity": "hospital", "name": "Chichra Hospital", "source": "OpenGovernmentData"}}, {"type": "node", "id": 7199853316, "lat": 22.2017144, "lon": 87.1408251, "tags": {"addr:district": "Paschim Medinipur", "addr:postcode": "721135", "addr:state": "West Bengal", "addr:subdistrict": "Sankrail", "amenity": "hospital", "description": "Rural Hospital", "name": "Bhangagarh RH", "source": "OpenGovernmentData"}}, {"type": "node", "id": 7199853375, "lat": 22.249492, "lon": 86.9696342, "tags": {"addr:district": "Paschim Medinipur", "addr:full": "Near Kushmur High School, Tentulia, Jhargram", "addr:postcode": "721506", "addr:state": "West Bengal", "addr:subdistrict": "GOPIBALLAVPUR - II", "amenity": "hospital", "name": "Tentulia Hospital", "source": "OpenGovernmentData"}}, {"type": "node", "id": 7199853398, "lat": 22.2613862, "lon": 86.9127711, "tags": {"addr:district": "Paschim Medinipur", "addr:full": "Near Tapsia Vidyasagar Sikshayatan (H.S.), Tapsia", "addr:postcode": "721517", "addr:state": "West Bengal", "addr:subdistrict": "GOPIBALLAVPUR - II", "amenity": "hospital", "name": "Tapsia Rural Hospital", "source": "OpenGovernmentData"}}, {"type": "node", "id": 7668176342, "lat": 22.3202324, "lon": 87.0150239, "tags": {"addr:district": "Jhargram", "addr:full": "Mohanpur", "addr:postcode": "721507", "addr:state": "West Bengal", "amenity": "hospital", "name": "Mohanpur Hospital", "source": "Local Knowledge"}}, {"type": "node", "id": 8691881566, "lat": 22.2125802, "lon": 86.899817}, {"type": "node", "id": 8691881567, "lat": 22.2117707, "lon": 86.8996239}, {"type": "node", "id": 8691881568, "lat": 22.2118477, "lon": 86.9005626}, {"type": "node", "id": 8691881569, "lat": 22.2124809, "lon": 86.9006579}, {"type": "node", "id": 13624616310, "lat": 22.3759352, "lon": 86.7500889}, {"type": "node", "id": 13624616311, "lat": 22.3756697, "lon": 86.7512419}, {"type": "node", "id": 13624616312, "lat": 22.3744054, "lon": 86.7509486}, {"type": "node", "id": 13624616313, "lat": 22.3745526, "lon": 86.7497005}, {"type": "node", "id": 13649082107, "lat": 22.3697492, "lon": 86.779194, "tags": {"addr:village": "Saldoha", "amenity": "school", "education": "school", "grades": "1-6", "name": "Primary School"}}, {"type": "node", "id": 13649088405, "lat": 22.2936644, "lon": 86.7091222}, {"type": "node", "id": 13649088406, "lat": 22.2943894, "lon": 86.7092279}, {"type": "node", "id": 13649088407, "lat": 22.2956897, "lon": 86.7092354}, {"type": "node", "id": 13649088408, "lat": 22.2953764, "lon": 86.710408}, {"type": "node", "id": 13649088409, "lat": 22.2942967, "lon": 86.7097477}, {"type": "node", "id": 13649088410, "lat": 22.2938958, "lon": 86.7096651}, {"type": "node", "id": 13649088411, "lat": 22.2938042, "lon": 86.7094281}, {"type": "node", "id": 13649088412, "lat": 22.2937748, "lon": 86.7093519}, {"type": "node", "id": 13649088413, "lat": 22.2935991, "lon": 86.7092585}, {"type": "node", "id": 13649088414, "lat": 22.2927953, "lon": 86.709754}, {"type": "node", "id": 13649088415, "lat": 22.293764, "lon": 86.7111012}, {"type": "node", "id": 13649088416, "lat": 22.2926583, "lon": 86.7116998}, {"type": "node", "id": 13649088417, "lat": 22.291779, "lon": 86.7103048}, {"type": "node", "id": 13649088467, "lat": 22.3760839, "lon": 86.7507291}, {"type": "node", "id": 13649088469, "lat": 22.3933113, "lon": 86.7562547, "tags": {"addr:village": "Kalapathar", "amenity": "school", "education": "school", "name": "Kalapathar Middle School"}}, {"type": "node", "id": 13649088470, "lat": 22.3933382, "lon": 86.757079, "tags": {"addr:village": "Kalapathar", "amenity": "bank", "branch": "Kalapathar", "brand": "State Bank of India", "brand:wikidata": "Q1340361", "name": "State Bank of India", "short_name": "SBI"}}, {"type": "node", "id": 13649088471, "lat": 22.3939556, "lon": 86.756333, "tags": {"addr:village": "Kalapathar", "amenity": "place_of_worship", "name": "Nigameshwar Shiv Mandir", "religion": "hindu"}}, {"type": "node", "id": 13651700006, "lat": 22.3125274, "lon": 86.7217048, "tags": {"amenity": "school", "education": "school", "name": "Eklavya Model School"}}, {"type": "node", "id": 13652444995, "lat": 22.3668284, "lon": 86.7887355, "tags": {"amenity": "clinic", "healthcare": "clinic"}}, {"type": "node", "id": 13659235855, "lat": 22.2826831, "lon": 86.7169314, "tags": {"amenity": "bus_station", "bus": "yes", "name": "Baharagora Bus Terminal", "public_transport": "station"}}, {"type": "way", "id": 938211055, "nodes": [8691881569, 8691881568, 8691881567, 8691881566, 8691881569], "tags": {"leisure": "park"}}, {"type": "way", "id": 1486247622, "nodes": [13624616310, 13649088467, 13624616311, 13624616312, 13624616313, 13624616310], "tags": {"addr:postcode": "832301", "addr:village": "Gandanata", "amenity": "school", "building": "yes", "building:levels": "1", "grades": "1-10", "name": "Gandanata High School"}}, {"type": "way", "id": 1489044025, "nodes": [13649088405, 13649088406, 13649088407, 13649088408, 13649088409, 13649088410, 13649088411, 13649088412, 13649088413, 13649088405], "tags": {"amenity": "school", "building": "terrace", "education": "school", "grades": "1-12", "name": "T.P.S. D.A.V. Public School, Baharagora"}}, {"type": "way", "id": 1489044026, "nodes": [13649088414, 13649088415, 13649088416, 13649088417, 13649088414], "tags": {"amenity": "college", "education": "college", "name": "Baharagora Polytechnic College"}}]}