{"version": 0.6, "generator": "Overpass API 0.7.62.11 87bfad18", "osm3s": {"timestamp_osm_base": "2026-04-24T05:36:14Z", "copyright": "The data included in this document is from www.openstreetmap.org. The data is made available under ODbL."}, "elements": [{"type": "node", "id": 7199853254, "lat": 21.8452178, "lon": 87.3210299, "tags": {"addr:district": "Paschim Medinipur", "addr:full": "Near Anikola Gram Panchayat Office, Bhurangi", "addr:postcode": "721457", "addr:state": "West Bengal", "addr:subdistrict": "Dantan - I", "amenity": "hospital", "name": "Bhurangi Hospital", "source": "OpenGovernmentData"}}, {"type": "node", "id": 7199853373, "lat": 21.964198, "lon": 87.094076, "tags": {"addr:district": "Paschim Medinipur", "addr:full": "Baligeria S/C", "addr:postcode": "721159", "addr:state": "West Bengal", "addr:subdistrict": "NAYAGRAM", "amenity": "hospital", "name": "Baligeria Hospital", "source": "OpenGovernmentData"}}, {"type": "node", "id": 7206026590, "lat": 21.7572154, "lon": 87.2492337, "tags": {"addr:district": "Baleshwar", "addr:full": "Near Chhamauj School, Chhamauj", "addr:postcode": "756086", "addr:state": "Odisha", "addr:subdistrict": "Jaleswar P.S.", "amenity": "hospital", "description": "Government Hospital", "name": "Government Hospital, Chhamouja", "source": "OpenGovernmentData"}}, {"type": "node", "id": 7206175307, "lat": 21.7479094, "lon": 87.2178941, "tags": {"addr:district": "Baleshwar", "addr:full": "Near Jamalpur Primary School, Jamalpur", "addr:postcode": "756032", "addr:state": "Odisha", "addr:subdistrict": "Jaleswar P.S.", "amenity": "hospital", "description": "Government Hospital", "name": "Government Hospital, Jamalpur", "source": "OpenGovernmentData"}}, {"type": "node", "id": 7208764199, "lat": 21.7843282, "lon": 87.1281903, "tags": {"addr:district": "Mayurbhanj", "addr:full": "Near School, Amarda", "addr:postcode": "757055", "addr:state": "Odisha", "addr:subdistrict": "Rasagobindapur P.S.", "amenity": "hospital", "description": "Government Hospital", "name": "Government Hospital, Amarda", "source": "OpenGovernmentData"}}, {"type": "node", "id": 7210948178, "lat": 21.8074777, "lon": 87.2421125, "tags": {"addr:district": "Baleswar", "addr:full": "Jaleswar Road, Near High School, Jaleswar", "addr:postcode": "756032", "addr:state": "Odisha", "amenity": "hospital", "name": "G.K.Bhattar Government Hospital", "source": "OpenGovernmentData"}}, {"type": "node", "id": 7220559338, "lat": 21.7499261, "lon": 87.35651, "tags": {"addr:district": "Baleshwar", "addr:full": "Kamarda Bus Stand, Kamarda", "addr:postcode": "756035", "addr:state": "Odisha", "addr:subdistrict": "Kamarda P.S. (New)", "amenity": "hospital", "description": "Government hospital", "name": "Government hospital, Kamarda", "source": "OpenGovernmentData"}}, {"type": "node", "id": 7220780205, "lat": 21.8836644, "lon": 87.1203697, "tags": {"addr:district": "Baleshwar", "addr:full": "Uporkundi Road, Khuard", "addr:postcode": "756033", "addr:state": "Odisha", "addr:subdistrict": "Jaleswar P.S.", "amenity": "hospital", "name": "Government Hospital, Khuard", "source": "OpenGovernmentData"}}, {"type": "node", "id": 7701163674, "lat": 21.7472295, "lon": 87.2060801, "tags": {"addr:district": "Balasore", "addr:full": "Kadarayan", "addr:postcode": "756030", "addr:state": "Odhisa", "amenity": "hospital", "name": "Runi Hospital", "source": "Local Knowledge"}}, {"type": "node", "id": 7701163686, "lat": 21.8038504, "lon": 87.226975, "tags": {"addr:district": "Balasore", "addr:full": "Jaleswar", "addr:postcode": "756032", "addr:state": "Odhisa", "amenity": "clinic", "name": "Ramkrishna Nursing Home", "source": "Local Knowledge"}}, {"type": "node", "id": 7701163698, "lat": 21.8058075, "lon": 87.2302255, "tags": {"addr:district": "Balasore", "addr:full": "Jaleswar", "addr:postcode": "756032", "addr:state": "Odhisa", "amenity": "clinic", "name": "Surakhya Nursing Home", "source": "Local Knowledge"}}, {"type": "node", "id": 7701163700, "lat": 21.7909444, "lon": 87.2979916, "tags": {"addr:district": "Balasore", "addr:full": "Sugo", "addr:postcode": "756084", "addr:state": "Odhisa", "amenity": "hospital", "name": "Netua Hospital", "source": "Local Knowledge"}}, {"type": "node", "id": 7701163715, "lat": 21.8042004, "lon": 87.2293139, "tags": {"addr:district": "Balasore", "addr:full": "Jaleswar", "addr:postcode": "756086", "addr:state": "Odhisa", "amenity": "hospital", "name": "Bhoomika Eye Hospital", "source": "Local Knowledge"}}]}