{"version": 0.6, "generator": "Overpass API 0.7.62.11 87bfad18", "osm3s": {"timestamp_osm_base": "2026-04-24T05:33:01Z", "copyright": "The data included in this document is from www.openstreetmap.org. The data is made available under ODbL."}, "elements": [{"type": "node", "id": 4796629123, "lat": 18.6833432, "lon": 83.947254, "tags": {"addr:city": "Hiramandalam", "addr:postcode": "532459", "addr:street": "Barriage Centre Road", "amenity": "place_of_worship", "name": "Sai Baba Temple", "religion": "hindu"}}, {"type": "node", "id": 4796639413, "lat": 18.6833482, "lon": 83.9467282, "tags": {"addr:city": "Hiramandalam", "addr:postcode": "532459", "addr:street": "Barriage Centre Road", "amenity": "place_of_worship", "name": "Ramalayam", "religion": "hindu"}}, {"type": "node", "id": 4796666412, "lat": 18.6872123, "lon": 83.9488338, "tags": {"addr:block": "Pathapatnam", "addr:city": "Hiramandalam", "addr:district": "Srikakulam", "addr:full": "Mainroad, Hiramandalam", "addr:postcode": "532459", "addr:state": "Andhra Pradesh", "addr:street": "Subhalaya", "addr:subdistrict": "Hiramandalam Mandal", "amenity": "hospital", "contact:phone": "8946253332", "emergency": "yes", "name": "Government Primary Hospital", "source": "OpenGovernmentData"}}, {"type": "node", "id": 4798383405, "lat": 18.6751478, "lon": 83.9489828, "tags": {"addr:city": "Hiramandalam", "addr:postcode": "532459", "addr:street": "Main Road", "amenity": "place_of_worship", "name": "Vinayaka Temple", "religion": "hindu"}}, {"type": "node", "id": 4798383415, "lat": 18.6732601, "lon": 83.9499171, "tags": {"addr:city": "Hiramandalam", "addr:postcode": "532459", "addr:street": "Main Road", "amenity": "bank", "name": "Hiramandalam SBI", "opening_hours": "10:00-17:00", "operator": "State Bank of India"}}, {"type": "node", "id": 4798383416, "lat": 18.6748284, "lon": 83.9492807, "tags": {"addr:city": "Hiramandalam", "addr:postcode": "532459", "addr:street": "Main Road", "amenity": "place_of_worship", "name": "Patapatnam Amma Varu Temple", "religion": "hindu"}}, {"type": "node", "id": 5081033159, "lat": 18.6722353, "lon": 83.949495, "tags": {"amenity": "atm", "currency:INR": "yes", "drive_through": "no", "operator": "SBI"}}, {"type": "node", "id": 5081033219, "lat": 18.6722139, "lon": 83.9494907, "tags": {"addr:city": "Hiramandalam", "addr:postcode": "532459", "amenity": "bank", "atm": "no", "name": "VIsakha Grameena Vikas Bank"}}, {"type": "node", "id": 5081033361, "lat": 18.6707435, "lon": 83.9513288, "tags": {"addr:city": "Hiramandalam", "addr:postcode": "532459", "addr:street": "Devarasetti Street", "amenity": "place_of_worship", "denomination": "hindu", "name": "Sai Baba Temple", "religion": "hindu"}}, {"type": "node", "id": 5081033362, "lat": 18.6707954, "lon": 83.9513164, "tags": {"addr:city": "Hiramandalam", "addr:postcode": "532459", "addr:street": "Devarasetti Street", "amenity": "place_of_worship", "denomination": "hindu", "name": "Satyanarayana Swamy Temple", "religion": "hindu"}}, {"type": "node", "id": 5081033432, "lat": 18.6700707, "lon": 83.9485378, "tags": {"addr:city": "Hiramandalam", "addr:postcode": "532459", "amenity": "college", "internet_access": "no", "name": "Govt. Junior College", "operator": "AP Govt."}}, {"type": "node", "id": 5081033433, "lat": 18.6701636, "lon": 83.9488763, "tags": {"addr:city": "Hiramandalam", "addr:postcode": "532459", "amenity": "school", "name": "Govt. Secondary School", "operator": "AP Govt."}}, {"type": "node", "id": 5081033452, "lat": 18.6702135, "lon": 83.9499172, "tags": {"addr:city": "Hiramandalam", "addr:postcode": "532459", "addr:street": "Anguru Street", "amenity": "school", "name": "Govt. Primary School", "operator": "AP Govt."}}, {"type": "node", "id": 5081033549, "lat": 18.6685726, "lon": 83.9499061, "tags": {"addr:city": "Hiramandalam", "addr:postcode": "532459", "addr:street": "Brahmana Street", "amenity": "place_of_worship", "denomination": "hindu", "name": "Jagannadha Swamy Temple", "religion": "hindu"}}, {"type": "node", "id": 5081033551, "lat": 18.6660841, "lon": 83.950059, "tags": {"addr:city": "Hiramandalam", "addr:postcode": "532459", "amenity": "school", "name": "Narayana School", "operator": "Private"}}, {"type": "node", "id": 6129860779, "lat": 18.5989879, "lon": 83.7604159, "tags": {"amenity": "bus_station", "bus": "yes", "name": "APSRTC Bus Station , Palakonda", "public_transport": "station"}}, {"type": "node", "id": 7002728807, "lat": 18.6039369, "lon": 83.7536408, "tags": {"amenity": "place_of_worship", "name": "Vinayaka Temple", "religion": "hindu"}}, {"type": "node", "id": 7002728808, "lat": 18.6022144, "lon": 83.7538059, "tags": {"amenity": "place_of_worship", "name": "Kota Durga Temple", "religion": "hindu"}}, {"type": "node", "id": 7115980666, "lat": 18.695397, "lon": 83.816622, "tags": {"addr:block": "Seethampeta", "addr:district": "Srikakulam", "addr:full": "Near Police Station, Seethampeta", "addr:postcode": "532443", "addr:state": "Andhra Pradesh", "addr:street": "Main Road", "addr:subdistrict": "Seethampeta Mandal", "amenity": "hospital", "contact:phone": "8941258499", "name": "Government Hospital, Seethampeta", "source": "OpenGovernmentData"}}, {"type": "node", "id": 7272576550, "lat": 18.7125796, "lon": 84.0079381, "tags": {"amenity": "place_of_worship", "name": "Rama Temple, Kollata", "religion": "hindu"}}, {"type": "node", "id": 7272577939, "lat": 18.7099916, "lon": 84.0081052, "tags": {"amenity": "place_of_worship", "name": "Hanuman Temple, Kollata AP", "religion": "hindu"}}, {"type": "node", "id": 8041475885, "lat": 18.6865347, "lon": 83.887558, "tags": {"amenity": "cafe", "name": "Sri Sai Suvarnna Inn"}}, {"type": "node", "id": 8791581236, "lat": 18.600848, "lon": 83.762995, "tags": {"addr:district": "Srikakulam", "addr:full": "Palakonda", "addr:postcode": "532440", "addr:state": "Andhra Pradesh", "amenity": "hospital", "name": "Government Hospital, Palakonda", "source": "Local Knowledge"}}, {"type": "node", "id": 9886600161, "lat": 18.6012813, "lon": 83.7524913, "tags": {"amenity": "bus_station", "bus": "yes", "public_transport": "station"}}, {"type": "node", "id": 10841478997, "lat": 18.6668878, "lon": 83.9506378, "tags": {"amenity": "bus_station", "bus": "yes", "name": "APSRTC Bus Station , Hiramandalam", "public_transport": "station"}}, {"type": "node", "id": 11026164178, "lat": 18.6954273, "lon": 83.8175331, "tags": {"amenity": "bus_station", "bus": "yes", "name": "Seethampeta Bus Stop", "public_transport": "station"}}, {"type": "node", "id": 11237572515, "lat": 18.6825355, "lon": 83.8153915, "tags": {"amenity": "place_of_worship", "name": "Sri Venkasteswara Temple, Seethampeta", "religion": "hindu"}}, {"type": "node", "id": 11237572520, "lat": 18.6851981, "lon": 83.816358, "tags": {"amenity": "college", "name": "Kasturiba Gandhi Balika Vidyalam ( KGBV ) , Seethampeta"}}, {"type": "node", "id": 11422325166, "lat": 18.6591614, "lon": 83.9604768, "tags": {"amenity": "bus_station", "bus": "yes", "name": "Mahalakshmi Puram Bus Stop", "public_transport": "station"}}, {"type": "node", "id": 11422325395, "lat": 18.6692311, "lon": 83.9647923, "tags": {"amenity": "bus_station", "bus": "yes", "name": "BhagiradhipuramBus Stop", "public_transport": "station"}}, {"type": "node", "id": 11422325451, "lat": 18.6982859, "lon": 83.9515877, "tags": {"amenity": "bus_station", "bus": "yes", "name": "Nauguda Bus Stop", "public_transport": "station"}}, {"type": "node", "id": 11944641195, "lat": 18.5751467, "lon": 83.7190506, "tags": {"amenity": "bus_station", "bus": "yes", "name": "Chinna Mangalapuram Bus Stop", "public_transport": "station"}}, {"type": "node", "id": 11944641196, "lat": 18.5723971, "lon": 83.7347449, "tags": {"amenity": "bus_station", "bus": "yes", "name": "Mangalapuram Bus shelter", "public_transport": "station"}}, {"type": "node", "id": 11944784603, "lat": 18.6054572, "lon": 83.7183765, "tags": {"amenity": "bus_station", "bus": "yes", "name": "Tampatapalli  / Tumarada Bus Stop", "public_transport": "station"}}, {"type": "node", "id": 11947311332, "lat": 18.7104458, "lon": 83.8019462, "tags": {"amenity": "bus_station", "bus": "yes", "name": "Magadhara Bus Stop", "public_transport": "station"}}, {"type": "node", "id": 11947311333, "lat": 18.6632863, "lon": 83.8102909, "tags": {"amenity": "bus_station", "bus": "yes", "name": "Goyidi Bus Stop", "public_transport": "station"}}, {"type": "node", "id": 11947311334, "lat": 18.6149751, "lon": 83.7725989, "tags": {"amenity": "bus_station", "bus": "yes", "name": "Velagavada Bus Stop", "public_transport": "station"}}, {"type": "node", "id": 11954251989, "lat": 18.5867247, "lon": 83.7860926, "tags": {"amenity": "bus_station", "bus": "yes", "name": "Tuddali Bus Stop", "public_transport": "station"}}, {"type": "node", "id": 13308574204, "lat": 18.5985899, "lon": 83.7610506, "tags": {"amenity": "bank", "atm": "yes", "brand": "Union Bank of India", "brand:wikidata": "Q2004078", "check_date": "2025-11-16", "name": "Union Bank of India"}}, {"type": "node", "id": 13308574205, "lat": 18.5986193, "lon": 83.7609738, "tags": {"check_date": "2025-11-16", "name": "Smart Point", "shop": "supermarket"}}]}