{"version": 0.6, "generator": "Overpass API 0.7.62.11 87bfad18", "osm3s": {"timestamp_osm_base": "2026-04-24T05:34:05Z", "copyright": "The data included in this document is from www.openstreetmap.org. The data is made available under ODbL."}, "elements": [{"type": "node", "id": 7011762538, "lat": 22.4973869, "lon": 84.5065241, "tags": {"addr:district": "Simdega", "addr:full": "Near Police Station, Thethaitangar", "addr:postcode": "835226", "addr:state": "Jharkhand", "addr:subdistrict": "Thethaitangar", "amenity": "hospital", "name": "Referral Hospital", "source": "OpenGovernmentData"}}, {"type": "node", "id": 7208902722, "lat": 22.3680375, "lon": 84.5447275, "tags": {"addr:district": "Sundargarh", "addr:full": "Near By Andali Market", "addr:postcode": "770033", "addr:state": "Odisha", "addr:subdistrict": "Biramitrapur P.S.", "amenity": "clinic", "description": "Primary Health Centre", "healthcare": "centre", "name": "PHC, Andalijambahal", "source": "OpenGovernmentData"}}, {"type": "node", "id": 7227157314, "lat": 22.2697544, "lon": 84.475096, "tags": {"addr:district": "Sundargarh", "addr:postcode": "770018", "addr:state": "Odisha", "addr:subdistrict": "Kutra P.S.", "amenity": "hospital", "healthcare": "centre", "name": "Government Hospital, Khatkarbahal", "source": "OpenGovernmentData"}}, {"type": "node", "id": 7712727501, "lat": 22.1936425, "lon": 84.5766178, "tags": {"addr:district": "Sundargarh", "addr:full": "Rajgangpur", "addr:postcode": "770017", "addr:state": "Odhisa", "amenity": "hospital", "name": "Shanti Seva Sadan Hospital", "source": "Local Knowledge"}}, {"type": "node", "id": 7712727512, "lat": 22.189806, "lon": 84.581646, "tags": {"addr:district": "Sundargarh", "addr:full": "Rajgangpur", "addr:postcode": "770017", "addr:state": "Odhisa", "amenity": "clinic", "name": "Kedia Nursing Home", "source": "Local Knowledge"}}, {"type": "node", "id": 7712727543, "lat": 22.1913957, "lon": 84.5885664, "tags": {"addr:district": "Sundargarh", "addr:full": "Dilawargunj Road, Rajgangpur", "addr:postcode": "770017", "addr:state": "Odhisa", "amenity": "hospital", "name": "Subhash Bose Hospital", "source": "Local Knowledge"}}, {"type": "node", "id": 7712727580, "lat": 22.1888024, "lon": 84.5786583, "tags": {"addr:district": "Sundargarh", "addr:full": "Sriram Colony, Rajgangpur", "addr:postcode": "770017", "addr:state": "Odhisa", "amenity": "hospital", "name": "Shree Memorial Hospital", "source": "Local Knowledge"}}, {"type": "node", "id": 7712727591, "lat": 22.1890743, "lon": 84.5877199, "tags": {"addr:district": "Sundargarh", "addr:full": "Rajgangpur", "addr:postcode": "770017", "addr:state": "Odhisa", "amenity": "hospital", "name": "Government Hospital", "source": "Local Knowledge"}}, {"type": "node", "id": 9029779714, "lat": 22.1932857, "lon": 84.5883355}, {"type": "node", "id": 9029779715, "lat": 22.1931562, "lon": 84.5883082}, {"type": "node", "id": 9029779716, "lat": 22.1931786, "lon": 84.5881844}, {"type": "node", "id": 9029798517, "lat": 22.1933081, "lon": 84.5882117}, {"type": "node", "id": 10880143440, "lat": 22.1886305, "lon": 84.5792805}, {"type": "node", "id": 10880143441, "lat": 22.1886402, "lon": 84.5793344}, {"type": "node", "id": 10880143442, "lat": 22.1885928, "lon": 84.579354}, {"type": "node", "id": 10880143443, "lat": 22.1885782, "lon": 84.5793002}, {"type": "node", "id": 10880143452, "lat": 22.1881787, "lon": 84.579036}, {"type": "node", "id": 10880143453, "lat": 22.1878641, "lon": 84.5791899}, {"type": "node", "id": 10880143454, "lat": 22.1879297, "lon": 84.5794642}, {"type": "node", "id": 10880143455, "lat": 22.1882295, "lon": 84.5793014}, {"type": "node", "id": 10880143459, "lat": 22.1872353, "lon": 84.5797645, "tags": {"amenity": "atm", "operator": "Axis Bank"}}, {"type": "node", "id": 10880143461, "lat": 22.1867004, "lon": 84.5804533, "tags": {"amenity": "atm", "operator": "ICICI Bank"}}, {"type": "node", "id": 10880143463, "lat": 22.1866632, "lon": 84.5809426, "tags": {"shop": "supermarket"}}, {"type": "node", "id": 10880384554, "lat": 22.1861528, "lon": 84.5814603, "tags": {"amenity": "bank", "brand": "State Bank of India", "brand:wikidata": "Q1340361", "name": "State Bank of India", "short_name": "SBI"}}, {"type": "node", "id": 10880406425, "lat": 22.1869336, "lon": 84.5831308, "tags": {"amenity": "fast_food", "cuisine": "litti_chokha"}}, {"type": "node", "id": 10880406426, "lat": 22.1867548, "lon": 84.5831973, "tags": {"amenity": "fast_food"}}, {"type": "node", "id": 10880410891, "lat": 22.1867767, "lon": 84.5824796, "tags": {"amenity": "bus_station", "bus": "yes", "public_transport": "station"}}, {"type": "node", "id": 10880410932, "lat": 22.1870231, "lon": 84.5841371, "tags": {"amenity": "fast_food", "name": "Anand Sweets"}}, {"type": "node", "id": 10880428402, "lat": 22.1869217, "lon": 84.5840148}, {"type": "node", "id": 10880428403, "lat": 22.1868959, "lon": 84.5840384}, {"type": "node", "id": 10880428404, "lat": 22.1869714, "lon": 84.5842101}, {"type": "node", "id": 10880431152, "lat": 22.1864803, "lon": 84.5823727, "tags": {"amenity": "restaurant", "name": "Ginni Palace"}}, {"type": "node", "id": 10880431669, "lat": 22.1884823, "lon": 84.5866501, "tags": {"shop": "supermarket"}}, {"type": "node", "id": 10880438805, "lat": 22.1870091, "lon": 84.5841779}, {"type": "node", "id": 10880486432, "lat": 22.1983344, "lon": 84.5805905}, {"type": "node", "id": 10880486433, "lat": 22.1983377, "lon": 84.581242}, {"type": "node", "id": 10880486434, "lat": 22.1979478, "lon": 84.5812024}, {"type": "node", "id": 10880486435, "lat": 22.1979778, "lon": 84.5805797}, {"type": "node", "id": 10880500270, "lat": 22.1989042, "lon": 84.5796331}, {"type": "node", "id": 10880500271, "lat": 22.1988909, "lon": 84.5805401}, {"type": "node", "id": 10880500272, "lat": 22.1979612, "lon": 84.5805473}, {"type": "node", "id": 10880500273, "lat": 22.1980211, "lon": 84.5795791}, {"type": "node", "id": 10880510324, "lat": 22.1981011, "lon": 84.5816955, "tags": {"shop": "mall"}}, {"type": "node", "id": 10880536317, "lat": 22.196669, "lon": 84.5851168, "tags": {"amenity": "fast_food", "name": "Goldy Fast Food"}}, {"type": "node", "id": 10899223983, "lat": 22.1991396, "lon": 84.5746597}, {"type": "node", "id": 10899223984, "lat": 22.19921, "lon": 84.5749673}, {"type": "node", "id": 10899223985, "lat": 22.1988806, "lon": 84.5751415}, {"type": "node", "id": 10899223986, "lat": 22.1988068, "lon": 84.5747783}, {"type": "node", "id": 10899224003, "lat": 22.1902012, "lon": 84.5829415, "tags": {"amenity": "place_of_worship", "religion": "hindu"}}, {"type": "node", "id": 10899240352, "lat": 22.1975331, "lon": 84.5846271}, {"type": "node", "id": 10899240353, "lat": 22.1975214, "lon": 84.5847549}, {"type": "node", "id": 10899240354, "lat": 22.1967009, "lon": 84.5847653}, {"type": "node", "id": 10899240355, "lat": 22.1967707, "lon": 84.5845537}, {"type": "node", "id": 10899249517, "lat": 22.1876659, "lon": 84.5843212, "tags": {"shop": "supermarket"}}, {"type": "node", "id": 10899272248, "lat": 22.1978008, "lon": 84.5847779, "tags": {"amenity": "place_of_worship", "religion": "hindu"}}, {"type": "way", "id": 975805551, "nodes": [9029798517, 9029779716, 9029779715, 9029779714, 9029798517], "tags": {"amenity": "place_of_worship", "building": "temple", "religion": "muslim", "source": "MaxarPremium"}}, {"type": "way", "id": 1170454510, "nodes": [10880143440, 10880143441, 10880143442, 10880143443, 10880143440], "tags": {"amenity": "fast_food", "building": "retail", "name": "Dosa Corner"}}, {"type": "way", "id": 1170454513, "nodes": [10880143452, 10880143453, 10880143454, 10880143455, 10880143452], "tags": {"amenity": "restaurant", "building": "yes", "name": "Sun CIty"}}, {"type": "way", "id": 1170489100, "nodes": [10880428402, 10880428403, 10880428404, 10880438805, 10880428402], "tags": {"amenity": "place_of_worship", "building": "yes", "religion": "hindu"}}, {"type": "way", "id": 1170498190, "nodes": [10880500270, 10880500271, 10880500272, 10880500273, 10880500270], "tags": {"amenity": "school", "name": "Dalmia Vidya Mandir"}}, {"type": "way", "id": 1170498476, "nodes": [10880486432, 10880486433, 10880486434, 10880486435, 10880486432], "tags": {"amenity": "place_of_worship", "building": "yes", "name": "ShivJI Temple", "religion": "hindu"}}, {"type": "way", "id": 1173041439, "nodes": [10899223983, 10899223984, 10899223985, 10899223986, 10899223983], "tags": {"amenity": "place_of_worship", "building": "yes", "religion": "hindu"}}, {"type": "way", "id": 1173044476, "nodes": [10899240352, 10899240353, 10899240354, 10899240355, 10899240352], "tags": {"leisure": "park"}}]}