{"version": 0.6, "generator": "Overpass API 0.7.62.11 87bfad18", "osm3s": {"timestamp_osm_base": "2026-04-24T05:28:59Z", "copyright": "The data included in this document is from www.openstreetmap.org. The data is made available under ODbL."}, "elements": [{"type": "node", "id": 7121765886, "lat": 23.0040464, "lon": 86.1326923, "tags": {"addr:district": "Sarikela-Kharswana", "addr:full": "Nimdih", "addr:postcode": "832401", "addr:state": "Jharkhand", "addr:subdistrict": "Nimdih", "amenity": "hospital", "description": "Community Health Center", "healthcare": "centre", "name": "CHC, Nimdih", "source": "OpenGovernmentData"}}, {"type": "node", "id": 7809605536, "lat": 22.999106, "lon": 86.0934757, "tags": {"addr:city": "Gunda", "addr:postcode": "832401", "amenity": "place_of_worship", "denomination": "hindu", "name": "Gunda Shiv Mandir", "religion": "hindu"}}, {"type": "node", "id": 7809649393, "lat": 22.9984147, "lon": 86.0912951, "tags": {"addr:city": "Gunda", "addr:postcode": "832401", "amenity": "place_of_worship", "denomination": "hindu", "name": "Kaal Bhairav Thakur Than", "religion": "hindu"}}, {"type": "node", "id": 7809660320, "lat": 22.9579266, "lon": 86.0695826, "tags": {"addr:city": "Chandil", "addr:housenumber": "Burudungri", "addr:postcode": "832401", "addr:street": "NH18", "amenity": "bank", "atm": "no", "currency:INR": "yes", "drive_through": "yes", "name": "Bandhan Bank", "opening_hours": "Mo-Sa 10:00-17:00", "operator": "Bandhan Bank"}}, {"type": "node", "id": 7809667052, "lat": 22.9580155, "lon": 86.0691293, "tags": {"addr:city": "Chandil", "addr:housenumber": "Nimdih Branch", "addr:street": "NH18", "amenity": "bank", "atm": "yes", "brand": "Bank of India", "brand:wikidata": "Q2004439", "brand:wikipedia": "en:Bank of India", "currency:INR": "yes", "drive_through": "yes", "name": "Bank of India", "opening_hours": "Mo-Su 10:00-17:00"}}, {"type": "node", "id": 9482892371, "lat": 22.886839, "lon": 86.13536, "tags": {"addr:street": "Kandarberya, Jharkhand", "amenity": "restaurant", "name": "Jagjeet Hotel"}}, {"type": "node", "id": 9482967850, "lat": 22.8868101, "lon": 86.1349897, "tags": {"amenity": "restaurant", "name": "Manjeet Dhaba"}}, {"type": "node", "id": 9543892310, "lat": 22.8903076, "lon": 86.2191073}, {"type": "node", "id": 9543905453, "lat": 22.8903445, "lon": 86.2192248}, {"type": "node", "id": 9543905454, "lat": 22.890258, "lon": 86.2192219}, {"type": "node", "id": 9543905455, "lat": 22.8902614, "lon": 86.2191058}, {"type": "node", "id": 9543905456, "lat": 22.8903478, "lon": 86.2191087}, {"type": "node", "id": 9547928054, "lat": 22.8630676, "lon": 86.2021582}, {"type": "node", "id": 9547928055, "lat": 22.8629595, "lon": 86.2021323}, {"type": "node", "id": 9547928056, "lat": 22.8629776, "lon": 86.2020431}, {"type": "node", "id": 9547928057, "lat": 22.8630857, "lon": 86.202069}, {"type": "way", "id": 1035865610, "nodes": [9543905456, 9543892310, 9543905455, 9543905454, 9543905453, 9543905456], "tags": {"amenity": "place_of_worship", "building": "temple", "religion": "hindu", "source": "Esri World Imagery"}}, {"type": "way", "id": 1036347252, "nodes": [9547928057, 9547928056, 9547928055, 9547928054, 9547928057], "tags": {"amenity": "place_of_worship", "building": "temple", "religion": "hindu", "source": "Esri World Imagery"}}]}