{"version": 0.6, "generator": "Overpass API 0.7.62.11 87bfad18", "osm3s": {"timestamp_osm_base": "2026-04-24T05:22:48Z", "copyright": "The data included in this document is from www.openstreetmap.org. The data is made available under ODbL."}, "elements": [{"type": "node", "id": 4632772490, "lat": 26.6586477, "lon": 89.829083, "tags": {"amenity": "school", "name": "\u092e\u093f\u0936\u0928 \u0938\u094d\u0915\u0942\u0932 \u0921\u093e\u0902\u0917\u0940, \u0915\u0941\u092e\u093e\u0930\u0917\u094d\u0930\u093e\u092e\u0926\u0941\u0906\u0930", "name:hi": "\u092e\u093f\u0936\u0928 \u0938\u094d\u0915\u0942\u0932 \u0921\u093e\u0902\u0917\u0940, \u0915\u0941\u092e\u093e\u0930\u0917\u094d\u0930\u093e\u092e\u0926\u0941\u0906\u0930"}}, {"type": "node", "id": 7062308681, "lat": 26.4814371, "lon": 89.5241755, "tags": {"addr:district": "Jalpaiguri", "addr:full": "Hospital Road P O Alipurduar", "addr:postcode": "736121", "addr:state": "West Bengal", "amenity": "clinic", "contact:phone": "3564256053", "healthcare": "clinic", "name": "Green Land Nursing Home", "source": "OpenGovernmentData"}}, {"type": "node", "id": 7065871418, "lat": 26.4811994, "lon": 89.5279728, "tags": {"addr:district": "Jalpaiguri", "addr:full": "Alipurduar Chowpathi,Alipurduar,Jalpaiguri", "addr:postcode": "736121", "addr:state": "West Bengal", "amenity": "hospital", "healthcare": "hospital", "name": "Lions Eye Hospital,Alipurduar", "source": "OpenGovernmentData"}}, {"type": "node", "id": 7079170781, "lat": 26.4817534, "lon": 89.5273056, "tags": {"addr:district": "Jalpaiguri", "addr:full": "P.O.Alipurduar", "addr:postcode": "736121", "addr:state": "West Bengal", "amenity": "clinic", "healthcare": "clinic", "name": "St Marys Nursing Home, Jalpaiguri", "source": "OpenGovernmentData"}}, {"type": "node", "id": 7199769153, "lat": 26.685819, "lon": 89.43696, "tags": {"addr:district": "Alipurduar", "addr:full": "Uttar Latabari, Latabari G.P, Gandhi Nagar, Hospital Road", "addr:postcode": "736182", "addr:state": "West Bengal", "addr:subdistrict": "Kalchini", "amenity": "hospital", "name": "Uttar Latabari Rural Hospital", "source": "OpenGovernmentData"}}, {"type": "node", "id": 7199770366, "lat": 26.4306476, "lon": 89.795057, "tags": {"addr:district": "Cooch Behar", "addr:full": "Near Singimari High School, Rampur", "addr:postcode": "736131", "addr:state": "West Bengal", "addr:subdistrict": "Tufanganj - II", "amenity": "hospital", "name": "Rampur Hospital", "source": "OpenGovernmentData"}}, {"type": "node", "id": 7199770458, "lat": 26.4841832, "lon": 89.5233569, "tags": {"addr:district": "Alipurduar", "addr:full": "Alipurduar Municipality", "addr:postcode": "736121", "addr:state": "West Bengal", "amenity": "hospital", "description": "District Hospital", "healthcare": "hospital", "name": "Alipurduar District Hospital", "source": "OpenGovernmentData"}}, {"type": "node", "id": 7199770637, "lat": 26.5120413, "lon": 89.6293562, "tags": {"addr:district": "Alipurduar", "addr:full": "Beside Alipurduar Block-Ii Bdo Office, Tatpara I G.P", "addr:postcode": "736206", "addr:state": "West Bengal", "addr:subdistrict": "Alipurduar - II", "amenity": "hospital", "name": "Jasodanga Rural Hospital", "source": "OpenGovernmentData"}}, {"type": "node", "id": 7199771471, "lat": 26.4493507, "lon": 89.623245, "tags": {"addr:district": "Alipurduar", "addr:full": "Opp. to Library, Bhatibari G.P", "addr:postcode": "736208", "addr:state": "West Bengal", "addr:subdistrict": "Alipurduar - II", "amenity": "hospital", "name": "Bhatibari Rural Hospital", "source": "OpenGovernmentData"}}, {"type": "node", "id": 7199771729, "lat": 26.3916181, "lon": 89.5929639, "tags": {"addr:district": "Cooch Behar", "addr:full": "Natabari, Natabari Road", "addr:postcode": "736156", "addr:state": "West Bengal", "addr:subdistrict": "Tufanganj - I", "amenity": "hospital", "name": "Natabari Rural Hospital", "source": "OpenGovernmentData"}}, {"type": "node", "id": 7666886930, "lat": 26.657426, "lon": 89.468261, "tags": {"addr:district": "Alipurduar", "addr:full": "Bhatkhawa Tea Garden", "addr:postcode": "735217", "addr:state": "West Bengal", "amenity": "hospital", "name": "Bhatkawa Tea Garden Hospital", "source": "Local Knowledge"}}, {"type": "node", "id": 7666886931, "lat": 26.543611, "lon": 89.538089, "tags": {"addr:district": "Alipurduar", "addr:full": "Purbba Majherdabri Tea Garden", "addr:postcode": "736123", "addr:state": "West Bengal", "amenity": "hospital", "name": "Dabri Hospital", "source": "Local Knowledge"}}, {"type": "node", "id": 7666886944, "lat": 26.3443, "lon": 89.472145, "tags": {"addr:district": "Cooch Behar", "addr:full": "Cooah Behar", "addr:postcode": "736101", "addr:state": "West Bengal", "amenity": "hospital", "name": "Poddar Speciality Hospital", "source": "Local Knowledge"}}, {"type": "node", "id": 7666886955, "lat": 26.5445, "lon": 89.437497, "tags": {"addr:district": "Alipurduar", "addr:full": "Paitkapara Tea Garden, Patkapara", "addr:postcode": "735217", "addr:state": "West Bengal", "amenity": "hospital", "name": "Patkapara Hospital", "source": "Local Knowledge"}}, {"type": "node", "id": 7666886957, "lat": 26.3464432, "lon": 89.4359974, "tags": {"addr:district": "Cooch Behar", "addr:full": "Khagrabari, Cooch Behar", "addr:postcode": "736179", "addr:state": "West Bengal", "amenity": "hospital", "name": "J. D. Hospital", "source": "Local Knowledge"}}, {"type": "node", "id": 7666886971, "lat": 26.3460212, "lon": 89.4362209, "tags": {"addr:district": "Cooch Behar", "addr:full": "Khagrabari, Mahishbathan Pratham Khanda", "addr:postcode": "736179", "addr:state": "West Bengal", "amenity": "hospital", "name": "Mahisbathan Hospital", "source": "Local Knowledge"}}, {"type": "node", "id": 7666886987, "lat": 26.485431, "lon": 89.524465, "tags": {"addr:district": "Alipurduar", "addr:full": "Sobhaganj", "addr:postcode": "736121", "addr:state": "West Bengal", "amenity": "clinic", "healthcare": "clinic", "name": "Maa Sheva Nurshing Home", "source": "Local Knowledge"}}, {"type": "node", "id": 7886515368, "lat": 26.4815395, "lon": 89.5345091}, {"type": "node", "id": 7886515369, "lat": 26.4817271, "lon": 89.5345091}, {"type": "node", "id": 7886515370, "lat": 26.4817647, "lon": 89.5342766}, {"type": "node", "id": 7886515371, "lat": 26.4819813, "lon": 89.5343223}, {"type": "node", "id": 7886515372, "lat": 26.4820086, "lon": 89.5341374}, {"type": "node", "id": 7886515373, "lat": 26.4820649, "lon": 89.533943}, {"type": "node", "id": 7886515374, "lat": 26.4820837, "lon": 89.5338801}, {"type": "node", "id": 7886515375, "lat": 26.4819182, "lon": 89.5338268}, {"type": "node", "id": 7886515376, "lat": 26.4817476, "lon": 89.5338268}, {"type": "node", "id": 7886515377, "lat": 26.4817476, "lon": 89.5337124}, {"type": "node", "id": 7886515378, "lat": 26.4815651, "lon": 89.5337048}, {"type": "node", "id": 7886515379, "lat": 26.4814491, "lon": 89.5336991}, {"type": "node", "id": 7886515380, "lat": 26.4813518, "lon": 89.5337029}, {"type": "node", "id": 7886515381, "lat": 26.4813348, "lon": 89.5339259}, {"type": "node", "id": 7886515382, "lat": 26.4813382, "lon": 89.5341755}, {"type": "node", "id": 7886515383, "lat": 26.4813382, "lon": 89.5343032}, {"type": "node", "id": 7886515384, "lat": 26.4814695, "lon": 89.5342785}, {"type": "node", "id": 7886537985, "lat": 26.4815617, "lon": 89.5342708}, {"type": "node", "id": 8064251210, "lat": 26.4100035, "lon": 89.4374268, "tags": {"addr:district": "Cooch Behar", "addr:full": "dhangdhing guri", "addr:postcode": "736165", "addr:state": "West Bengal", "amenity": "hospital", "name": "Government Hospital, dhangdhing guri", "source": "Local Knowledge"}}, {"type": "node", "id": 9295666417, "lat": 26.6455322, "lon": 89.6823401, "tags": {"addr:postcode": "736201", "amenity": "place_of_worship", "name": "Nurpur Shiv Dham", "opening_hours": "24/7"}}, {"type": "node", "id": 9297244076, "lat": 26.4982726, "lon": 89.5354317, "tags": {"addr:city": "Alipurduar", "addr:postcode": "736121", "addr:street": "COLLEGE PARA", "amenity": "restaurant", "name": "RUPAR RANNAGHOR"}}, {"type": "node", "id": 10250107010, "lat": 26.7142891, "lon": 89.8223655, "tags": {"addr:street": "Lhamoizingkha Gewog", "amenity": "fast_food", "name": "Sumitra restaurant"}}, {"type": "node", "id": 11845227187, "lat": 26.398672, "lon": 89.4980239}, {"type": "node", "id": 11845227188, "lat": 26.3985885, "lon": 89.4980239}, {"type": "node", "id": 11845227189, "lat": 26.3985885, "lon": 89.497924}, {"type": "node", "id": 11845227190, "lat": 26.398672, "lon": 89.497924}, {"type": "node", "id": 12126373003, "lat": 26.5206731, "lon": 89.5342112, "tags": {"addr:city": "Alipurduar jn, Alipurduar", "addr:district": "Alipurduar", "addr:housenumber": "Engineering colony", "addr:postcode": "736123", "addr:street": "chechakhata", "amenity": "place_of_worship", "denomination": "shakta", "name": "Chinnamasta Mandir", "religion": "hindu"}}, {"type": "node", "id": 12328412440, "lat": 26.4954146, "lon": 89.5276068, "tags": {"amenity": "cafe", "name": "Yummy"}}, {"type": "node", "id": 12328412449, "lat": 26.4953887, "lon": 89.5272865, "tags": {"amenity": "fast_food", "cuisine": "chicken", "indoor_seating": "yes", "name": "Hot Chicks", "takeaway": "yes"}}, {"type": "node", "id": 12328412456, "lat": 26.4952893, "lon": 89.527845, "tags": {"amenity": "restaurant", "cuisine": "regional;indian;chinese", "name": "Aahar Restaurant"}}, {"type": "node", "id": 12488430161, "lat": 26.5267153, "lon": 89.6914759}, {"type": "node", "id": 12488430162, "lat": 26.5266629, "lon": 89.6914667}, {"type": "node", "id": 12488430163, "lat": 26.5266533, "lon": 89.6915252}, {"type": "node", "id": 12488430164, "lat": 26.5267098, "lon": 89.6915391}, {"type": "node", "id": 12607622201, "lat": 26.7643241, "lon": 89.5709884, "tags": {"amenity": "place_of_worship", "name": "Aka Zati Lhakhang Monastery"}}, {"type": "node", "id": 12917111951, "lat": 26.4918215, "lon": 89.5334974, "tags": {"amenity": "school", "grades": "1-12", "name": "Govinda High School"}}, {"type": "node", "id": 12917111952, "lat": 26.492065, "lon": 89.5320329, "tags": {"amenity": "place_of_worship", "name": "Lohar pul Mandir", "religion": "hindu"}}, {"type": "node", "id": 12917643777, "lat": 26.5036471, "lon": 89.5258148}, {"type": "node", "id": 12917643778, "lat": 26.5034826, "lon": 89.5267812}, {"type": "node", "id": 12917643779, "lat": 26.502307, "lon": 89.5263911}, {"type": "node", "id": 12917643780, "lat": 26.5024399, "lon": 89.5254071}, {"type": "node", "id": 12917643781, "lat": 26.4767457, "lon": 89.5236809}, {"type": "node", "id": 12917643782, "lat": 26.4767124, "lon": 89.5234672}, {"type": "node", "id": 12917643783, "lat": 26.4763798, "lon": 89.5232745}, {"type": "node", "id": 12917643784, "lat": 26.4760805, "lon": 89.5232675}, {"type": "node", "id": 12917643785, "lat": 26.47575, "lon": 89.5232954}, {"type": "node", "id": 12917643786, "lat": 26.4756273, "lon": 89.5236901}, {"type": "node", "id": 12917643787, "lat": 26.4756481, "lon": 89.5239526}, {"type": "node", "id": 12917643788, "lat": 26.4764442, "lon": 89.5243264}, {"type": "node", "id": 13617783594, "lat": 26.6014112, "lon": 89.4405774, "tags": {"amenity": "restaurant", "cuisine": "indian", "name": "Nimti Dhaba"}}, {"type": "node", "id": 13617783599, "lat": 26.6003527, "lon": 89.4417534, "tags": {"amenity": "restaurant", "cuisine": "indian", "name": "Ankit Dhaba"}}, {"type": "node", "id": 13617803711, "lat": 26.6051526, "lon": 89.4347906, "tags": {"amenity": "bank", "brand": "Central Bank of India", "brand:wikidata": "Q2007090", "name": "Central Bank of India"}}, {"type": "node", "id": 13617803721, "lat": 26.6058715, "lon": 89.4341494, "tags": {"amenity": "pharmacy", "healthcare": "pharmacy"}}, {"type": "node", "id": 13617803722, "lat": 26.6060662, "lon": 89.4339752, "tags": {"amenity": "restaurant", "cuisine": "pizza"}}, {"type": "node", "id": 13617803725, "lat": 26.6052803, "lon": 89.4341811, "tags": {"amenity": "place_of_worship", "religion": "hindu"}}, {"type": "way", "id": 845310895, "nodes": [7886515368, 7886515369, 7886515370, 7886515371, 7886515372, 7886515373, 7886515374, 7886515375, 7886515376, 7886515377, 7886515378, 7886515379, 7886515380, 7886515381, 7886515382, 7886515383, 7886515384, 7886537985, 7886515368], "tags": {"addr:city": "Alipurduar", "addr:postcode": "736121", "leisure": "park", "name": "Ananda Nagar Playground", "opening_hours": "24/7"}}, {"type": "way", "id": 1275813365, "nodes": [11845227190, 11845227189, 11845227188, 11845227187, 11845227190], "tags": {"amenity": "place_of_worship", "building": "temple", "fixme": "check religion", "religion": "hindu"}}, {"type": "way", "id": 1349986741, "nodes": [12488430161, 12488430162, 12488430163, 12488430164, 12488430161], "tags": {"amenity": "place_of_worship", "building": "yes", "name": "kali temple", "religion": "hindu", "service_times": "all day"}}, {"type": "way", "id": 1395542187, "nodes": [12917643777, 12917643778, 12917643779, 12917643780, 12917643777], "tags": {"leisure": "park", "name": "Arabinda Nagar Ground"}}, {"type": "way", "id": 1395542188, "nodes": [12917643781, 12917643782, 12917643783, 12917643784, 12917643785, 12917643786, 12917643787, 12917643788, 12917643781], "tags": {"amenity": "school", "name": "Town Club Ground"}}]}