{"version": 0.6, "generator": "Overpass API 0.7.62.11 87bfad18", "osm3s": {"timestamp_osm_base": "2026-04-24T05:33:01Z", "copyright": "The data included in this document is from www.openstreetmap.org. The data is made available under ODbL."}, "elements": [{"type": "node", "id": 4247946290, "lat": 18.7532052, "lon": 83.3776922, "tags": {"addr:city": "Pedabondapalli", "addr:postcode": "535527", "amenity": "school", "name": "Z.P.High School"}}, {"type": "node", "id": 4247946688, "lat": 18.7495656, "lon": 83.3758227, "tags": {"addr:city": "Pedabondapalli", "addr:postcode": "535527", "amenity": "place_of_worship", "denomination": "5000", "name": "Shiva Temple", "religion": "hindu"}}, {"type": "node", "id": 4247981717, "lat": 18.7513835, "lon": 83.3732473, "tags": {"addr:block": "Parvathipuram", "addr:city": "pedabondapalli", "addr:district": "Vizianagaram", "addr:place": "Sudigam Road", "addr:postcode": "535522", "addr:state": "Andhra Pradesh", "addr:subdistrict": "Parvathipuram Mandal", "amenity": "hospital", "description": "Primary Health Centre", "emergency": "yes", "healthcare": "centre", "name": "Primary Health Center,Pedabondapalli", "source": "OpenGovernmentData"}}, {"type": "node", "id": 4248001319, "lat": 18.7526079, "lon": 83.3777201, "tags": {"addr:city": "Pedabondapalli", "addr:postcode": "535527", "amenity": "bank", "atm": "no", "brand": "Andhra Pradesh Grameena Vikas Bank", "brand:en": "Andhra Pradesh Grameena Vikas Bank", "brand:te": "\u0c06\u0c02\u0c27\u0c4d\u0c30\u200c\u0c2a\u0c4d\u0c30\u200c\u0c26\u0c47\u0c36\u0c4d \u0c17\u0c4d\u0c30\u0c3e\u0c2e\u0c40\u0c23 \u0c35\u0c3f\u0c15\u0c3e\u0c38\u0c4d \u0c2c\u0c4d\u0c2f\u0c3e\u0c02\u0c15\u0c4d", "brand:wikidata": "Q18109664", "name": "Andhra Pradesh Grameena Vikas Bank", "name:en": "Andhra Pradesh Grameena Vikas Bank", "name:te": "\u0c06\u0c02\u0c27\u0c4d\u0c30\u200c\u0c2a\u0c4d\u0c30\u200c\u0c26\u0c47\u0c36\u0c4d \u0c17\u0c4d\u0c30\u0c3e\u0c2e\u0c40\u0c23 \u0c35\u0c3f\u0c15\u0c3e\u0c38\u0c4d \u0c2c\u0c4d\u0c2f\u0c3e\u0c02\u0c15\u0c4d"}}, {"type": "node", "id": 4248149779, "lat": 18.7530614, "lon": 83.3755464, "tags": {"addr:city": "Pedabondapalli", "addr:postcode": "535527", "amenity": "place_of_worship", "name": "Ram Temple", "religion": "hindu"}}, {"type": "node", "id": 6300916113, "lat": 18.7462676, "lon": 83.40617, "tags": {"amenity": "place_of_worship", "name": "Shivalayam", "religion": "hindu"}}, {"type": "node", "id": 6778998198, "lat": 18.7764429, "lon": 83.4256388, "tags": {"addr:district": "Vizianagaram", "addr:full": "Main Road, Parvathipuram", "addr:postcode": "535501", "addr:state": "Andhra Pradesh", "amenity": "hospital", "name": "Karshaka Maharshi Hospital", "opening_hours": "24/7", "source": "OpenGovernmentData"}}, {"type": "node", "id": 6789695495, "lat": 18.7773533, "lon": 83.4248435, "tags": {"addr:district": "Vizianagaram", "addr:full": "Main Road, Parvatipuram", "addr:postcode": "535501", "addr:state": "Andhra Pradesh", "amenity": "hospital", "name": "Jayasree Hospital", "opening_hours": "24/7", "source": "OpenGovernmentData"}}, {"type": "node", "id": 7114008039, "lat": 18.7711288, "lon": 83.4243477, "tags": {"addr:block": "Parvathipuram", "addr:district": "Vizianagaram", "addr:full": "Area Hospital", "addr:place": "Near Rto Office", "addr:postcode": "535501", "addr:state": "Andhra Pradesh", "addr:subdistrict": "Parvathipuram Mandal", "amenity": "hospital", "description": "Sub-District Hospital", "name": "Area Hospital,Parvathipuram", "source": "OpenGovernmentData"}}, {"type": "node", "id": 7114008045, "lat": 18.837095, "lon": 83.549484, "tags": {"addr:district": "Vizianagaram", "addr:place": "Opp. School", "addr:postcode": "535526", "addr:state": "Andhra Pradesh", "addr:subdistrict": "Jiyyammavalasa Mandal", "amenity": "hospital", "name": "Government Hospital, Chinamerangi", "source": "OpenGovernmentData"}}, {"type": "node", "id": 7114008050, "lat": 18.8669366, "lon": 83.5489583, "tags": {"addr:block": "Kurupam", "addr:district": "Vizianagaram", "addr:place": "Near Rama Mandhir", "addr:postcode": "535524", "addr:state": "Andhra Pradesh", "addr:subdistrict": "Kurupam Mandal", "amenity": "hospital", "image": "https://commons.wikimedia.org/wiki/File:Government_hospital_in_kurupam.jpg", "name": "Government Hospital,Madalangi", "source": "OpenGovernmentData"}}, {"type": "node", "id": 7114008114, "lat": 18.7903674, "lon": 83.6005777, "tags": {"addr:district": "Vizianagaram", "addr:place": "Near Govt. High School", "addr:postcode": "535595", "addr:state": "Andhra Pradesh", "addr:subdistrict": "Jiyyammavalasa Mandal", "amenity": "hospital", "contact:phone": "8963227577", "name": "Government Hospital,Jiyyammavalasa", "source": "OpenGovernmentData"}}, {"type": "node", "id": 7114008150, "lat": 18.9229288, "lon": 83.6938184, "tags": {"addr:block": "Kurupam", "addr:district": "Vizianagaram", "addr:place": "Near Police Station", "addr:postcode": "535524", "addr:state": "Andhra Pradesh", "addr:subdistrict": "Kurupam Mandal", "amenity": "hospital", "name": "Government Hospital,Mondemkhallu", "source": "OpenGovernmentData"}}, {"type": "node", "id": 7114008175, "lat": 18.7111266, "lon": 83.4941907, "tags": {"addr:district": "Vizianagaram", "addr:place": "Beside Mro Office", "addr:postcode": "535463", "addr:state": "Andhra Pradesh", "addr:subdistrict": "Garugubilli Mandal", "amenity": "hospital", "contact:phone": "8963227025", "name": "Government Hospital, Garugubilli", "source": "OpenGovernmentData"}}, {"type": "node", "id": 7214434758, "lat": 19.1158565, "lon": 83.5191379, "tags": {"addr:district": "Rayagada", "addr:full": "Jangili Village, Jangili Phc", "addr:postcode": "765002", "addr:state": "Odisha", "addr:subdistrict": "Rayagada", "amenity": "hospital", "name": "Govt Medical Jangili", "source": "OpenGovernmentData"}}, {"type": "node", "id": 7786891164, "lat": 18.7889577, "lon": 83.4285134, "tags": {"addr:district": "Vizianagaram", "addr:full": "Parvathipuram", "addr:postcode": "535501", "addr:state": "Andhra Pradesh", "amenity": "clinic", "name": "Venu Clinic", "source": "Local Knowledge"}}, {"type": "node", "id": 7786891166, "lat": 18.7740507, "lon": 83.4245325, "tags": {"addr:district": "Vizianagaram", "addr:full": "Parvathipuram", "addr:postcode": "535501", "addr:state": "Andhra Pradesh", "amenity": "hospital", "name": "Swamy Hospital", "source": "Local Knowledge"}}, {"type": "node", "id": 7786891172, "lat": 18.7816976, "lon": 83.4267978, "tags": {"addr:district": "Vizianagaram", "addr:full": "Parvathipuram", "addr:postcode": "535501", "addr:state": "Andhra Pradesh", "amenity": "hospital", "name": "Bhanu Prasad Hospital", "source": "Local Knowledge"}}, {"type": "node", "id": 7786891179, "lat": 18.7675648, "lon": 83.4301608, "tags": {"addr:district": "Vizianagaram", "addr:full": "Parvathipuram", "addr:postcode": "535501", "addr:state": "Andhra Pradesh", "amenity": "hospital", "name": "Leprasy Hospital", "source": "Local Knowledge"}}, {"type": "node", "id": 7786891183, "lat": 18.776746, "lon": 83.425261, "tags": {"addr:district": "Vizianagaram", "addr:full": "Parvathipuram", "addr:postcode": "535501", "addr:state": "Andhra Pradesh", "amenity": "hospital", "name": "Raja Simha Children's Hospital", "source": "Local Knowledge"}}, {"type": "node", "id": 7786891188, "lat": 18.771155, "lon": 83.422401, "tags": {"addr:district": "Vizianagaram", "addr:full": "Parvathipuram", "addr:postcode": "535501", "addr:state": "Andhra Pradesh", "amenity": "hospital", "name": "Vandana Hospital", "source": "Local Knowledge"}}, {"type": "node", "id": 7786891189, "lat": 18.7817374, "lon": 83.4267443, "tags": {"addr:district": "Vizianagaram", "addr:full": "Parvathipuram", "addr:postcode": "535501", "addr:state": "Andhra Pradesh", "amenity": "hospital", "name": "Sowndarya ENT Hospital", "source": "Local Knowledge"}}, {"type": "node", "id": 7786891193, "lat": 18.776411, "lon": 83.42564, "tags": {"addr:district": "Vizianagaram", "addr:full": "Parvathipuram", "addr:postcode": "535501", "addr:state": "Andhra Pradesh", "amenity": "clinic", "name": "Sai Sandhya Physiotherpay Clinic", "source": "Local Knowledge"}}, {"type": "node", "id": 7786891194, "lat": 18.7721601, "lon": 83.4230691, "tags": {"addr:district": "Vizianagaram", "addr:full": "Belagam, Parvathipuram", "addr:postcode": "535501", "addr:state": "Andhra Pradesh", "amenity": "hospital", "name": "Sri Sai Hospital", "source": "Local Knowledge"}}, {"type": "node", "id": 7786891197, "lat": 18.7772273, "lon": 83.4247089, "tags": {"addr:district": "Vizianagaram", "addr:full": "Parvathipuram", "addr:postcode": "535501", "addr:state": "Andhra Pradesh", "amenity": "hospital", "name": "Padmaja Hospital", "source": "Local Knowledge"}}, {"type": "node", "id": 7786891198, "lat": 18.7744113, "lon": 83.4237403, "tags": {"addr:district": "Vizianagaram", "addr:full": "Parvathipuram", "addr:postcode": "535501", "addr:state": "Andhra Pradesh", "amenity": "clinic", "name": "Srinivasa Child Care Clinic", "source": "Local Knowledge"}}, {"type": "node", "id": 7786891209, "lat": 18.7755905, "lon": 83.425884, "tags": {"addr:district": "Vizianagaram", "addr:full": "Y.K.M. Colony", "addr:postcode": "535522", "addr:state": "Andhra Pradesh", "amenity": "hospital", "name": "Choudary Hospital and Diagnostics", "source": "Local Knowledge"}}, {"type": "node", "id": 7786891215, "lat": 18.776522, "lon": 83.425324, "tags": {"addr:district": "Vizianagaram", "addr:full": "Parvathipuram", "addr:postcode": "535501", "addr:state": "Andhra Pradesh", "amenity": "hospital", "name": "Sudha Orthopaedic Hospital", "source": "Local Knowledge"}}, {"type": "node", "id": 7786891230, "lat": 18.7797226, "lon": 83.4259142, "tags": {"addr:district": "Vizianagaram", "addr:full": "Parvathipuram", "addr:postcode": "535501", "addr:state": "Andhra Pradesh", "amenity": "clinic", "name": "Kaartikeya Multi Speciality Dental Clinic", "source": "Local Knowledge"}}, {"type": "node", "id": 8113795577, "lat": 18.7638204, "lon": 83.4169908, "tags": {"amenity": "place_of_worship", "denomination": "orthodox", "name": "Durga Devi temple", "religion": "hindu"}}, {"type": "node", "id": 8113821631, "lat": 18.7667708, "lon": 83.4195983, "tags": {"amenity": "hospital", "healthcare": "hospital", "name": "SRI VENKATESWARA NURSING HOME"}}, {"type": "node", "id": 8113830842, "lat": 18.7656036, "lon": 83.417777, "tags": {"amenity": "place_of_worship", "name": "Hanuman temple", "religion": "hindu"}}, {"type": "node", "id": 8113835959, "lat": 18.7671707, "lon": 83.4189196, "tags": {"amenity": "school", "name": "Viswa vignana vidyalayam"}}, {"type": "node", "id": 8113848439, "lat": 18.7697214, "lon": 83.4217687, "tags": {"amenity": "bank", "brand": "Union Bank of India", "brand:wikidata": "Q2004078", "brand:wikipedia": "en:Andhra Bank", "name": "Union Bank of India"}}, {"type": "node", "id": 8113848763, "lat": 18.7686051, "lon": 83.4207682, "tags": {"amenity": "atm", "brand": "State Bank of India", "brand:wikidata": "Q1340361", "network": "SBI", "operator": "State Bank of India", "operator:wikidata": "Q1340361"}}, {"type": "node", "id": 8113850626, "lat": 18.7701964, "lon": 83.4218427, "tags": {"amenity": "place_of_worship", "name": "ST LUTHERANS CHURCH", "religion": "christian"}}, {"type": "node", "id": 8113887454, "lat": 18.7737185, "lon": 83.4229642, "tags": {"amenity": "bus_station", "bus": "yes", "name": "APSRTC Bus Station  , Parvathipuram", "public_transport": "station"}}, {"type": "node", "id": 8113910556, "lat": 18.774397, "lon": 83.4237967, "tags": {"amenity": "bank", "atm": "yes", "brand": "State Bank of India", "brand:wikidata": "Q1340361", "name": "State Bank of India", "network": "State Bank of India", "operator": "State Bank of India", "short_name": "SBI"}}, {"type": "node", "id": 8113915781, "lat": 18.774605, "lon": 83.4241828, "tags": {"amenity": "atm", "brand": "Canara Bank", "brand:en": "Canara Bank", "brand:hi": "\u0915\u0947\u0928\u0930\u093e \u092c\u0948\u0902\u0915", "brand:kn": "\u0c95\u0cc6\u0ca8\u0cb0\u0cbe \u0cac\u0ccd\u0caf\u0cbe\u0c82\u0c95\u0ccd", "brand:pa": "\u0a15\u0a47\u0a28\u0a30\u0a3e \u0a2c\u0a48\u0a02\u0a15", "brand:pnb": "\u06a9\u06cc\u0646\u0631\u0627 \u0628\u06cc\u0646\u06a9", "brand:ur": "\u06a9\u06cc\u0646\u0631\u0627 \u0628\u06cc\u0646\u06a9", "brand:wikidata": "Q2003777", "name:en": "Canara Bank", "name:hi": "\u0915\u0947\u0928\u0930\u093e \u092c\u0948\u0902\u0915", "name:kn": "\u0c95\u0cc6\u0ca8\u0cb0\u0cbe \u0cac\u0ccd\u0caf\u0cbe\u0c82\u0c95\u0ccd", "name:pa": "\u0a15\u0a47\u0a28\u0a30\u0a3e \u0a2c\u0a48\u0a02\u0a15", "name:pnb": "\u06a9\u06cc\u0646\u0631\u0627 \u0628\u06cc\u0646\u06a9", "name:ur": "\u06a9\u06cc\u0646\u0631\u0627 \u0628\u06cc\u0646\u06a9", "operator": "Canara Bank", "operator:wikidata": "Q2003777"}}, {"type": "node", "id": 8113921531, "lat": 18.774219, "lon": 83.4241453, "tags": {"amenity": "bank", "brand": "Punjab National Bank", "brand:wikidata": "Q2743499", "brand:wikipedia": "en:Punjab National Bank", "name": "Punjab National Bank"}}, {"type": "node", "id": 8113930935, "lat": 18.776472, "lon": 83.4285771, "tags": {"amenity": "place_of_worship", "name": "Sai baba temple Belagam", "religion": "hindu"}}, {"type": "node", "id": 8120741307, "lat": 18.7985325, "lon": 83.4299898, "tags": {"amenity": "place_of_worship", "name": "Sri Surya peetam", "religion": "hindu"}}, {"type": "node", "id": 8120828205, "lat": 18.7779414, "lon": 83.4257689, "tags": {"amenity": "bank", "name": "Vishaka Co-operative bank"}}, {"type": "node", "id": 8120831018, "lat": 18.7773063, "lon": 83.4253898, "tags": {"amenity": "bank", "brand": "Central Bank of India", "brand:wikidata": "Q2007090", "brand:wikipedia": "en:Central Bank of India", "name": "Central Bank of India"}}, {"type": "node", "id": 8120850580, "lat": 18.7871853, "lon": 83.4253718, "tags": {"amenity": "place_of_worship", "name": "Trinadha Swamy temple", "religion": "hindu"}}, {"type": "node", "id": 8120896511, "lat": 18.7693075, "lon": 83.422572}, {"type": "node", "id": 8120896512, "lat": 18.7694191, "lon": 83.4226382}, {"type": "node", "id": 8120896513, "lat": 18.7696208, "lon": 83.4227706}, {"type": "node", "id": 8120896514, "lat": 18.7695777, "lon": 83.4228967}, {"type": "node", "id": 8120896515, "lat": 18.769519, "lon": 83.4230456}, {"type": "node", "id": 8120896516, "lat": 18.7694504, "lon": 83.423209}, {"type": "node", "id": 8120906217, "lat": 18.7693662, "lon": 83.4233972}, {"type": "node", "id": 8120906218, "lat": 18.7692899, "lon": 83.423575}, {"type": "node", "id": 8120906219, "lat": 18.769192, "lon": 83.4238046}, {"type": "node", "id": 8120906220, "lat": 18.7690823, "lon": 83.4237053}, {"type": "node", "id": 8120906221, "lat": 18.7689766, "lon": 83.423604}, {"type": "node", "id": 8120906222, "lat": 18.7689081, "lon": 83.4235399}, {"type": "node", "id": 8120906223, "lat": 18.7687847, "lon": 83.4234158}, {"type": "node", "id": 8120906224, "lat": 18.7686829, "lon": 83.4233186}, {"type": "node", "id": 8120906225, "lat": 18.7687925, "lon": 83.4230022}, {"type": "node", "id": 8120906226, "lat": 18.7689355, "lon": 83.4226506}, {"type": "node", "id": 8120906227, "lat": 18.7690157, "lon": 83.422448}, {"type": "node", "id": 8120906228, "lat": 18.7691528, "lon": 83.4224976}, {"type": "node", "id": 8120906229, "lat": 18.7692213, "lon": 83.4225183}, {"type": "node", "id": 8120906230, "lat": 18.7692586, "lon": 83.4225327}, {"type": "node", "id": 8120906231, "lat": 18.7692918, "lon": 83.4225534}, {"type": "node", "id": 10837784444, "lat": 18.8661892, "lon": 83.5541188, "tags": {"amenity": "bus_station", "bus": "yes", "name": "Kurupam Bus Stop", "public_transport": "station"}}, {"type": "node", "id": 10837784445, "lat": 18.9745082, "lon": 83.6633653, "tags": {"amenity": "bus_station", "bus": "yes", "name": "Gumma Laxmipuram X Roads Bus Stop", "public_transport": "station"}}, {"type": "node", "id": 11026164176, "lat": 19.1271342, "lon": 83.6415743, "tags": {"amenity": "bus_station", "bus": "yes", "name": "Kedaripuram Bus Stop", "public_transport": "station"}}, {"type": "node", "id": 11237571316, "lat": 19.0452986, "lon": 83.6563426, "tags": {"amenity": "bus_station", "bus": "yes", "name": "Kukkidi Bu Stop", "public_transport": "station"}}, {"type": "node", "id": 11237609087, "lat": 18.7633615, "lon": 83.6869248, "tags": {"amenity": "bus_station", "bus": "yes", "name": "Polla Bus Stop", "public_transport": "station"}}, {"type": "node", "id": 11237609088, "lat": 18.8166362, "lon": 83.7012787, "tags": {"amenity": "bus_station", "bus": "yes", "name": "Dandasura Bus Stop", "public_transport": "station"}}, {"type": "node", "id": 11295026079, "lat": 18.7271132, "lon": 83.3098038, "tags": {"amenity": "bus_station", "bus": "yes", "name": "Jamadala bus stop", "public_transport": "station"}}, {"type": "node", "id": 11295026080, "lat": 18.7277031, "lon": 83.3111902, "tags": {"amenity": "place_of_worship", "name": "Shivalayam , Jamadala", "religion": "hindu"}}, {"type": "node", "id": 11372718004, "lat": 18.9518726, "lon": 83.6730968, "tags": {"amenity": "bus_station", "bus": "yes", "name": "Gunjarada Bus Stop", "public_transport": "station"}}, {"type": "node", "id": 11499931308, "lat": 19.0254997, "lon": 83.6607119, "tags": {"amenity": "school", "name": "APTW Ashram High School"}}, {"type": "node", "id": 11499931309, "lat": 19.0265006, "lon": 83.6605518}, {"type": "node", "id": 11499931310, "lat": 19.0264372, "lon": 83.6614866}, {"type": "node", "id": 11499931311, "lat": 19.0250164, "lon": 83.6613317}, {"type": "node", "id": 11499931312, "lat": 19.0251091, "lon": 83.6606241}, {"type": "node", "id": 11884254224, "lat": 18.9074492, "lon": 83.4582926}, {"type": "node", "id": 11884254225, "lat": 18.9076126, "lon": 83.4595695}, {"type": "node", "id": 11884254226, "lat": 18.9073609, "lon": 83.4601245}, {"type": "node", "id": 11884254227, "lat": 18.9069591, "lon": 83.460351}, {"type": "node", "id": 11884254228, "lat": 18.9063617, "lon": 83.4603595}, {"type": "node", "id": 11884254229, "lat": 18.9063296, "lon": 83.4591392}, {"type": "node", "id": 11884254230, "lat": 18.9063698, "lon": 83.4576782}, {"type": "node", "id": 11884254231, "lat": 18.9064528, "lon": 83.45716}, {"type": "node", "id": 11884254232, "lat": 18.907318, "lon": 83.4576442}, {"type": "node", "id": 11884254233, "lat": 18.9070448, "lon": 83.4586239, "tags": {"amenity": "school", "name": "Komarada Aptwrs Boys School"}}, {"type": "node", "id": 11885669202, "lat": 18.8925712, "lon": 83.4603099}, {"type": "node", "id": 11885669203, "lat": 18.8930082, "lon": 83.4611214}, {"type": "node", "id": 11885669204, "lat": 18.8930049, "lon": 83.4613562}, {"type": "node", "id": 11885669205, "lat": 18.8926903, "lon": 83.4614795}, {"type": "node", "id": 11885669206, "lat": 18.8921212, "lon": 83.4605978}, {"type": "node", "id": 11885669207, "lat": 18.8924216, "lon": 83.4602728}, {"type": "node", "id": 11885669208, "lat": 18.8926549, "lon": 83.4607958, "tags": {"amenity": "college", "name": "APSWREIS JUNIOR COLLEGE KOMARADA"}}, {"type": "node", "id": 11885669228, "lat": 18.9019645, "lon": 83.4602228}, {"type": "node", "id": 11885669229, "lat": 18.9016478, "lon": 83.4619266}, {"type": "node", "id": 11885669230, "lat": 18.900312, "lon": 83.4614159}, {"type": "node", "id": 11885669231, "lat": 18.9007911, "lon": 83.4600641}, {"type": "node", "id": 11885731253, "lat": 18.7657053, "lon": 83.4723621}, {"type": "node", "id": 11885731254, "lat": 18.767382, "lon": 83.4739312}, {"type": "node", "id": 11885731255, "lat": 18.7673961, "lon": 83.475052}, {"type": "node", "id": 11885731256, "lat": 18.7673112, "lon": 83.4759262}, {"type": "node", "id": 11885731257, "lat": 18.7658468, "lon": 83.4770545}, {"type": "node", "id": 11885731258, "lat": 18.7651676, "lon": 83.4765763}, {"type": "node", "id": 11885731259, "lat": 18.7650756, "lon": 83.4764194}, {"type": "node", "id": 11885731260, "lat": 18.7646936, "lon": 83.4749698}, {"type": "node", "id": 11885731261, "lat": 18.7641488, "lon": 83.4748278}, {"type": "node", "id": 11885731262, "lat": 18.7642478, "lon": 83.4739611}, {"type": "node", "id": 11885731263, "lat": 18.7647785, "lon": 83.4736547}, {"type": "node", "id": 11885731264, "lat": 18.7645733, "lon": 83.4728179}, {"type": "node", "id": 11911710476, "lat": 18.7092061, "lon": 83.4991289}, {"type": "node", "id": 11911710477, "lat": 18.7085398, "lon": 83.4997868}, {"type": "node", "id": 11911710478, "lat": 18.7077896, "lon": 83.5007405}, {"type": "node", "id": 11911710479, "lat": 18.7069471, "lon": 83.5001121}, {"type": "node", "id": 11911710480, "lat": 18.7081459, "lon": 83.4984615}, {"type": "node", "id": 11944819683, "lat": 18.7210202, "lon": 83.594132, "tags": {"amenity": "bus_station", "bus": "yes", "name": "Dasumantapuram Bus Stop", "public_transport": "station"}}, {"type": "node", "id": 11944819701, "lat": 18.7545457, "lon": 83.6053567, "tags": {"amenity": "bus_station", "bus": "yes", "name": "Gadisingupuram Bus Stop", "public_transport": "station"}}, {"type": "node", "id": 11944819702, "lat": 18.7903207, "lon": 83.6018957, "tags": {"amenity": "bus_station", "bus": "yes", "name": "Jiyyamavalasa Bus Stop", "public_transport": "station"}}, {"type": "node", "id": 11944819719, "lat": 18.8121055, "lon": 83.5765562, "tags": {"amenity": "bus_station", "bus": "yes", "name": "Joguladumma Bus Stop", "public_transport": "station"}}, {"type": "node", "id": 11944819736, "lat": 18.8373068, "lon": 83.5486885, "tags": {"amenity": "bus_station", "bus": "yes", "name": "APSRTC Bus Stand , Chinna Merangi", "public_transport": "station"}}, {"type": "node", "id": 11944819754, "lat": 18.8437362, "lon": 83.5519325, "tags": {"amenity": "college", "name": "SSSD Government Polytechnic"}}, {"type": "node", "id": 11944819755, "lat": 18.8441299, "lon": 83.551928}, {"type": "node", "id": 11944819756, "lat": 18.8437823, "lon": 83.5529769}, {"type": "node", "id": 11944819757, "lat": 18.8429614, "lon": 83.552521}, {"type": "node", "id": 11944819758, "lat": 18.8432713, "lon": 83.5514855}, {"type": "node", "id": 11944819766, "lat": 18.8376061, "lon": 83.5232918, "tags": {"amenity": "bus_station", "bus": "yes", "name": "Pedda Merangi Junction Bus Stop", "public_transport": "station"}}, {"type": "node", "id": 11944819767, "lat": 18.8354196, "lon": 83.5291301, "tags": {"amenity": "bus_station", "bus": "yes", "name": "Pedda Merangi Bus Stop", "public_transport": "station"}}, {"type": "node", "id": 11944819775, "lat": 18.85371, "lon": 83.5201111, "tags": {"amenity": "bus_station", "bus": "yes", "name": "Jogirajupeta Bus Stop", "public_transport": "station"}}, {"type": "node", "id": 11944883499, "lat": 18.8145921, "lon": 83.4457591, "tags": {"amenity": "bus_station", "bus": "yes", "name": "Vikramapuram Bus Stop", "public_transport": "station"}}, {"type": "node", "id": 11944883500, "lat": 18.8524304, "lon": 83.4558885, "tags": {"amenity": "bus_station", "bus": "yes", "name": "Gangareguvalasa Bus Stop", "public_transport": "station"}}, {"type": "node", "id": 11944883507, "lat": 18.8623303, "lon": 83.4597214}, {"type": "node", "id": 11944883508, "lat": 18.8623706, "lon": 83.4604542}, {"type": "node", "id": 11944883509, "lat": 18.8615298, "lon": 83.4600326}, {"type": "node", "id": 11944883510, "lat": 18.8614372, "lon": 83.4598644}, {"type": "node", "id": 11944883511, "lat": 18.8615678, "lon": 83.4597565}, {"type": "node", "id": 11944883512, "lat": 18.8617341, "lon": 83.4596109}, {"type": "node", "id": 11944883513, "lat": 18.8986476, "lon": 83.4606268, "tags": {"amenity": "bus_station", "bus": "yes", "name": "Komarada Bus Stop", "public_transport": "station"}}, {"type": "node", "id": 11944883532, "lat": 18.9408478, "lon": 83.4528325, "tags": {"amenity": "bus_station", "bus": "yes", "name": "Ramabhadrapuram Bus Stop", "public_transport": "station"}}, {"type": "node", "id": 11944883533, "lat": 18.9655894, "lon": 83.4437603, "tags": {"amenity": "bus_station", "bus": "yes", "name": "Kuneru Bus Stop", "public_transport": "station"}}, {"type": "node", "id": 11944924114, "lat": 19.0005219, "lon": 83.444994, "tags": {"amenity": "bus_station", "bus": "yes", "name": "Vattada Bus Stop", "public_transport": "station"}}, {"type": "node", "id": 11944937267, "lat": 18.7526926, "lon": 83.3767495, "tags": {"amenity": "bus_station", "bus": "yes", "name": "Pedabondapalli Bus Stop", "public_transport": "station"}}, {"type": "node", "id": 11944937268, "lat": 18.7347636, "lon": 83.3527013, "tags": {"amenity": "bus_station", "bus": "yes", "name": "Putturu Bus Stop", "public_transport": "station"}}, {"type": "node", "id": 11944944826, "lat": 19.0109375, "lon": 83.4410633, "tags": {"amenity": "bus_station", "bus": "yes", "name": "Hata Seskhal Bus Stop", "public_transport": "station"}}, {"type": "node", "id": 11944944827, "lat": 19.0188648, "lon": 83.4485538, "tags": {"amenity": "bus_station", "bus": "yes", "name": "Hata Seskhal.", "public_transport": "station"}}, {"type": "node", "id": 11944944834, "lat": 19.0135253, "lon": 83.4338738, "tags": {"amenity": "bus_station", "bus": "yes", "name": "Seskhal Bus Stop", "public_transport": "station"}}, {"type": "node", "id": 11944944864, "lat": 19.0373258, "lon": 83.4297097, "tags": {"amenity": "bus_station", "bus": "yes", "name": "Jimidi Peta Bus Stop", "public_transport": "station"}}, {"type": "node", "id": 11944945057, "lat": 19.1067428, "lon": 83.4137373, "tags": {"amenity": "bus_station", "bus": "yes", "name": "Ladda Bus Stop", "public_transport": "station"}}, {"type": "node", "id": 11944974369, "lat": 18.7195363, "lon": 83.3339193, "tags": {"amenity": "bus_station", "bus": "yes", "name": "Bandaluppi Bus Stop", "public_transport": "station"}}, {"type": "node", "id": 11944974421, "lat": 18.727661, "lon": 83.3107422}, {"type": "node", "id": 11944974422, "lat": 18.7278965, "lon": 83.3107786}, {"type": "node", "id": 11944974423, "lat": 18.7278132, "lon": 83.3114729}, {"type": "node", "id": 11944974424, "lat": 18.7276036, "lon": 83.3116246}, {"type": "node", "id": 11944974425, "lat": 18.7273825, "lon": 83.3113517}, {"type": "node", "id": 11944974426, "lat": 18.7272274, "lon": 83.3112819}, {"type": "node", "id": 11944974427, "lat": 18.727147, "lon": 83.3110454}, {"type": "node", "id": 11944974428, "lat": 18.7274973, "lon": 83.3107179}, {"type": "node", "id": 11944979116, "lat": 18.7125292, "lon": 83.3549244, "tags": {"amenity": "bus_station", "bus": "yes", "name": "Puligummi Bus Stop", "public_transport": "station"}}, {"type": "node", "id": 11947264868, "lat": 18.7850238, "lon": 83.5072807, "tags": {"amenity": "bus_station", "bus": "yes", "name": "Thotapalle Bus Stop", "public_transport": "station"}}, {"type": "node", "id": 11947283624, "lat": 19.1224886, "lon": 83.6414385, "tags": {"amenity": "bus_station", "bus": "yes", "name": "Simalaguda Bus Stop", "public_transport": "station"}}, {"type": "node", "id": 11947290670, "lat": 18.7674286, "lon": 83.5140891, "tags": {"amenity": "bus_station", "bus": "yes", "name": "Khadgavalasa Bus Stop", "public_transport": "station"}}, {"type": "node", "id": 11947290698, "lat": 18.8520835, "lon": 83.5709045}, {"type": "node", "id": 11947290699, "lat": 18.8523923, "lon": 83.5715269}, {"type": "node", "id": 11947290700, "lat": 18.8518222, "lon": 83.5721644}, {"type": "node", "id": 11947290701, "lat": 18.8513329, "lon": 83.5721795}, {"type": "node", "id": 11947290702, "lat": 18.8511144, "lon": 83.5718482}, {"type": "node", "id": 11947290703, "lat": 18.8511049, "lon": 83.5711354}, {"type": "node", "id": 11947290704, "lat": 18.8515752, "lon": 83.5706735}, {"type": "node", "id": 11947290705, "lat": 18.8551787, "lon": 83.5655297}, {"type": "node", "id": 11947290706, "lat": 18.8549955, "lon": 83.5682571}, {"type": "node", "id": 11947290707, "lat": 18.8545213, "lon": 83.5692422}, {"type": "node", "id": 11947290708, "lat": 18.8529856, "lon": 83.5690543}, {"type": "node", "id": 11947290709, "lat": 18.8532389, "lon": 83.5679554}, {"type": "node", "id": 11947290710, "lat": 18.8541765, "lon": 83.5644706}, {"type": "node", "id": 11947290711, "lat": 18.8549524, "lon": 83.5647724}, {"type": "node", "id": 11947290738, "lat": 18.8384204, "lon": 83.6000343, "tags": {"amenity": "bus_station", "bus": "yes", "name": "Ramabhadrapuram Bus Stop", "public_transport": "station"}}, {"type": "node", "id": 11947290739, "lat": 18.8369456, "lon": 83.5998882, "tags": {"amenity": "hospital", "healthcare": "hospital", "name": "Hospital"}}, {"type": "node", "id": 11947290743, "lat": 18.8371243, "lon": 83.5996403}, {"type": "node", "id": 11947290744, "lat": 18.8372098, "lon": 83.6000118}, {"type": "node", "id": 11947290745, "lat": 18.8367656, "lon": 83.6001021}, {"type": "node", "id": 11947290746, "lat": 18.8366943, "lon": 83.5997407}, {"type": "node", "id": 11947290749, "lat": 18.8397691, "lon": 83.6215184, "tags": {"amenity": "bus_station", "bus": "yes", "name": "Kondanidagallu Bus Stop", "public_transport": "station"}}, {"type": "node", "id": 11947290893, "lat": 18.9740053, "lon": 83.6120631, "tags": {"amenity": "bus_station", "bus": "yes", "name": "Amiti Colony Bus Stop", "public_transport": "station"}}, {"type": "node", "id": 11947290895, "lat": 18.9564027, "lon": 83.6266093, "tags": {"amenity": "bus_station", "bus": "yes", "name": "Amiti Juncton Bus Stop", "public_transport": "station"}}, {"type": "node", "id": 11947290896, "lat": 18.9602518, "lon": 83.6431046, "tags": {"amenity": "bus_station", "bus": "yes", "name": "Gumma Bus Stop", "public_transport": "station"}}, {"type": "node", "id": 11947290901, "lat": 18.981568, "lon": 83.6601755}, {"type": "node", "id": 11947290902, "lat": 18.9817294, "lon": 83.6607009}, {"type": "node", "id": 11947290903, "lat": 18.9796824, "lon": 83.661653}, {"type": "node", "id": 11947290904, "lat": 18.9795465, "lon": 83.6602114}, {"type": "node", "id": 11947290905, "lat": 18.9796288, "lon": 83.6661155}, {"type": "node", "id": 11947290906, "lat": 18.9800182, "lon": 83.6670719}, {"type": "node", "id": 11947290907, "lat": 18.9795991, "lon": 83.6671975}, {"type": "node", "id": 11947290908, "lat": 18.9792855, "lon": 83.6662935}, {"type": "node", "id": 11947290919, "lat": 19.0373352, "lon": 83.6488385, "tags": {"amenity": "bus_station", "bus": "yes", "name": "Iridi Bus Stop", "public_transport": "station"}}, {"type": "node", "id": 11947290921, "lat": 19.0246599, "lon": 83.6616844, "tags": {"amenity": "bus_station", "bus": "yes", "name": "Kothaguda Bus Stop", "public_transport": "station"}}, {"type": "node", "id": 11947290922, "lat": 19.0441223, "lon": 83.6153849, "tags": {"amenity": "bus_station", "bus": "yes", "name": "Tadikonda Bus Stop", "public_transport": "station"}}, {"type": "node", "id": 11947311306, "lat": 18.9208634, "lon": 83.6929159, "tags": {"amenity": "bus_station", "bus": "yes", "name": "Mondemkhallu Bus Stop", "public_transport": "station"}}, {"type": "node", "id": 11967097167, "lat": 19.0640841, "lon": 83.6514391}, {"type": "node", "id": 11967097168, "lat": 19.064079, "lon": 83.6515841}, {"type": "node", "id": 11967117469, "lat": 19.0638785, "lon": 83.6515895}, {"type": "node", "id": 11967117470, "lat": 19.0639026, "lon": 83.6513746}, {"type": "node", "id": 11967117471, "lat": 19.0640283, "lon": 83.6514968, "tags": {"amenity": "place_of_worship", "name": "Boddhidi Sivalayam Panchavarneswar", "religion": "hindu"}}, {"type": "node", "id": 11967117476, "lat": 19.0478626, "lon": 83.6547726, "tags": {"amenity": "bus_station", "bus": "yes", "name": "Pedda Kharja Bus Stop", "public_transport": "station"}}, {"type": "node", "id": 11971070441, "lat": 18.7239322, "lon": 83.5478747, "tags": {"amenity": "bus_station", "bus": "yes", "public_transport": "station"}}, {"type": "node", "id": 11971070442, "lat": 18.7479482, "lon": 83.521623, "tags": {"amenity": "bus_station", "bus": "yes", "name": "Naguru Bus Stop", "public_transport": "station"}}, {"type": "node", "id": 11971070450, "lat": 18.7750685, "lon": 83.5033659, "tags": {"amenity": "bus_station", "bus": "yes", "name": "Santhoshapuram Bus Stop", "public_transport": "station"}}, {"type": "node", "id": 11971070466, "lat": 18.771843, "lon": 83.5074713, "tags": {"amenity": "bus_station", "bus": "yes", "name": "Santhoshapuram Bus Stop", "public_transport": "station"}}, {"type": "node", "id": 11971076982, "lat": 18.7632217, "lon": 83.489796}, {"type": "node", "id": 11971076983, "lat": 18.763477, "lon": 83.4893325}, {"type": "node", "id": 11971076984, "lat": 18.7651126, "lon": 83.4900741}, {"type": "node", "id": 11971076985, "lat": 18.7648174, "lon": 83.4905291}, {"type": "node", "id": 11971076987, "lat": 18.7635077, "lon": 83.4899274}, {"type": "node", "id": 11971076989, "lat": 18.7633242, "lon": 83.4896099}, {"type": "node", "id": 11971077000, "lat": 18.7573536, "lon": 83.4782011, "tags": {"amenity": "bus_station", "bus": "yes", "name": "Ullibhadra ( Vullibhadra ) Bus Stop", "public_transport": "station"}}, {"type": "node", "id": 11971077008, "lat": 18.7662027, "lon": 83.4517829, "tags": {"amenity": "bus_station", "bus": "yes", "name": "Addapuseela Bus Stop", "public_transport": "station"}}, {"type": "node", "id": 12003378120, "lat": 18.8644838, "lon": 83.5513765}, {"type": "node", "id": 12003378121, "lat": 18.8643859, "lon": 83.5512727}, {"type": "node", "id": 12003378122, "lat": 18.8642101, "lon": 83.5514577}, {"type": "node", "id": 12003378123, "lat": 18.864308, "lon": 83.5515615}, {"type": "node", "id": 12003394098, "lat": 18.8700275, "lon": 83.5454184}, {"type": "node", "id": 12003394099, "lat": 18.8697729, "lon": 83.5453662}, {"type": "node", "id": 12003394100, "lat": 18.8698572, "lon": 83.5449868}, {"type": "node", "id": 12003394101, "lat": 18.8701062, "lon": 83.545041}, {"type": "node", "id": 12870931507, "lat": 18.9731778, "lon": 83.656925, "tags": {"amenity": "bus_station", "bus": "yes", "name": "APSRTC Bus Station  , Gummalakshmipuram", "public_transport": "station"}}, {"type": "node", "id": 12989267110, "lat": 18.7195186, "lon": 83.4599945}, {"type": "node", "id": 12989267111, "lat": 18.7194476, "lon": 83.4599545}, {"type": "node", "id": 12989267112, "lat": 18.7193975, "lon": 83.460063}, {"type": "node", "id": 12989267113, "lat": 18.7194562, "lon": 83.4600823}, {"type": "node", "id": 13089861857, "lat": 19.0456577, "lon": 83.6136997}, {"type": "node", "id": 13089861858, "lat": 19.0455499, "lon": 83.6143303}, {"type": "node", "id": 13089861859, "lat": 19.0452723, "lon": 83.614764}, {"type": "node", "id": 13089861860, "lat": 19.044779, "lon": 83.6144478}, {"type": "node", "id": 13089861861, "lat": 19.0453409, "lon": 83.6135545}, {"type": "node", "id": 13089861862, "lat": 19.0456006, "lon": 83.6135804}, {"type": "node", "id": 13112615471, "lat": 18.9748985, "lon": 83.6549847, "tags": {"amenity": "place_of_worship", "name": "Anjaneya Swamy Temple", "religion": "hindu"}}, {"type": "node", "id": 13113397445, "lat": 19.0613666, "lon": 83.472861, "tags": {"amenity": "bus_station", "bus": "yes", "name": "Beerupadu Bus Stop", "public_transport": "station"}}, {"type": "node", "id": 13273315149, "lat": 18.7547993, "lon": 83.3773446}, {"type": "node", "id": 13273315150, "lat": 18.7547724, "lon": 83.3774358}, {"type": "node", "id": 13273315151, "lat": 18.754715, "lon": 83.3774414}, {"type": "node", "id": 13273315152, "lat": 18.7547428, "lon": 83.3773306}, {"type": "node", "id": 13351720433, "lat": 18.7685031, "lon": 83.4206285, "tags": {"amenity": "pharmacy", "healthcare": "pharmacy", "name": "Subham Medical Centre"}}, {"type": "node", "id": 13351720434, "lat": 18.7686515, "lon": 83.421238, "tags": {"amenity": "clinic", "healthcare": "clinic", "name": "Santhosh Clinic"}}, {"type": "node", "id": 13351720445, "lat": 18.7695191, "lon": 83.4215931, "tags": {"amenity": "bank", "atm": "yes", "branch": "Parvathipuram", "brand": "ICICI Bank", "brand:wikidata": "Q1653258", "name": "ICICI Bank", "short_name": "ICICI"}}, {"type": "node", "id": 13351720451, "lat": 18.7706094, "lon": 83.4224989, "tags": {"amenity": "pharmacy", "healthcare": "pharmacy", "name": "Meher Baba Medicals"}}, {"type": "node", "id": 13351720458, "lat": 18.7749377, "lon": 83.4244323, "tags": {"amenity": "bank", "brand": "HDFC Bank", "brand:wikidata": "Q631047", "name": "HDFC Bank", "short_name": "HDFC"}}, {"type": "node", "id": 13351720459, "lat": 18.7750096, "lon": 83.4244065, "tags": {"brand": "More", "brand:wikidata": "Q6910891", "name": "More", "shop": "supermarket"}}, {"type": "node", "id": 13351720462, "lat": 18.7751141, "lon": 83.424428, "tags": {"amenity": "pharmacy", "brand": "Apollo Pharmacy", "brand:wikidata": "Q62562612", "healthcare": "pharmacy", "name": "Apollo Pharmacy"}}, {"type": "node", "id": 13505143985, "lat": 18.978007, "lon": 83.664714}, {"type": "node", "id": 13505143986, "lat": 18.9780243, "lon": 83.6654208}, {"type": "node", "id": 13505143987, "lat": 18.9776123, "lon": 83.6654208}, {"type": "node", "id": 13505143988, "lat": 18.9773587, "lon": 83.6668588}, {"type": "node", "id": 13505143989, "lat": 18.9772579, "lon": 83.6669593}, {"type": "node", "id": 13505143990, "lat": 18.9766385, "lon": 83.6668801}, {"type": "node", "id": 13505143991, "lat": 18.9766702, "lon": 83.6662068}, {"type": "node", "id": 13505143992, "lat": 18.9771081, "lon": 83.6645677}, {"type": "node", "id": 13625081178, "lat": 18.9423174, "lon": 83.5558504}, {"type": "node", "id": 13625081179, "lat": 18.9421814, "lon": 83.5562373}, {"type": "node", "id": 13625081180, "lat": 18.9414975, "lon": 83.5561739}, {"type": "node", "id": 13625081181, "lat": 18.9418614, "lon": 83.555455}, {"type": "node", "id": 13625081182, "lat": 18.9422314, "lon": 83.555159}, {"type": "node", "id": 13625081183, "lat": 18.9425613, "lon": 83.5552542}, {"type": "node", "id": 13625081184, "lat": 18.9428113, "lon": 83.5553916}, {"type": "node", "id": 13625081185, "lat": 18.9427353, "lon": 83.5558821}, {"type": "node", "id": 13703073293, "lat": 18.8663282, "lon": 83.5587179}, {"type": "node", "id": 13703073294, "lat": 18.866116, "lon": 83.558945}, {"type": "node", "id": 13703073295, "lat": 18.8652485, "lon": 83.5586198}, {"type": "node", "id": 13703073296, "lat": 18.8650389, "lon": 83.5582862}, {"type": "node", "id": 13703073297, "lat": 18.8654899, "lon": 83.5578741}, {"type": "node", "id": 13703073298, "lat": 18.8660178, "lon": 83.558261}, {"type": "way", "id": 871875585, "nodes": [8120896511, 8120896512, 8120896513, 8120896514, 8120896515, 8120896516, 8120906217, 8120906218, 8120906219, 8120906220, 8120906221, 8120906222, 8120906223, 8120906224, 8120906225, 8120906226, 8120906227, 8120906228, 8120906229, 8120906230, 8120906231, 8120896511], "tags": {"amenity": "college", "building:levels": "2", "education": "college", "name": "Government Junior College, Parvathipuram"}}, {"type": "way", "id": 1238035031, "nodes": [11499931309, 11499931310, 11499931311, 11499931312, 11499931309], "tags": {"amenity": "school", "name": "APTW Ashram High School"}}, {"type": "way", "id": 1280252291, "nodes": [11884254224, 11884254225, 11884254226, 11884254227, 11884254228, 11884254229, 11884254230, 11884254231, 11884254232, 11884254224], "tags": {"amenity": "school", "name": "Komarada Aptwrs Boys School"}}, {"type": "way", "id": 1280445379, "nodes": [11885669202, 11885669203, 11885669204, 11885669205, 11885669206, 11885669207, 11885669202], "tags": {"amenity": "college", "name": "APSWREIS JUNIOR COLLEGE KOMARADA"}}, {"type": "way", "id": 1280445382, "nodes": [11885669228, 11885669229, 11885669230, 11885669231, 11885669228], "tags": {"amenity": "college"}}, {"type": "way", "id": 1280455152, "nodes": [11885731253, 11885731254, 11885731255, 11885731256, 11885731257, 11885731258, 11885731259, 11885731260, 11885731261, 11885731262, 11885731263, 11885731264, 11885731253], "tags": {"amenity": "college", "education": "college", "name": "Dr.YSR Horticultural University, College of Horticulture, Parvathipuram"}}, {"type": "way", "id": 1283846628, "nodes": [11911710476, 11911710477, 11911710478, 11911710479, 11911710480, 11911710476], "tags": {"amenity": "college", "education": "college", "name": "APSWREIS JURNIOR COLLEGE GARUGUBILLI"}}, {"type": "way", "id": 1288016750, "nodes": [11944819755, 11944819756, 11944819757, 11944819758, 11944819755], "tags": {"amenity": "college", "name": "SSSD Government Polytechnic"}}, {"type": "way", "id": 1288030214, "nodes": [11944883507, 11944883508, 11944883509, 11944883510, 11944883511, 11944883512, 11944883507], "tags": {"amenity": "school", "name": "Kotipam High School"}}, {"type": "way", "id": 1288033307, "nodes": [11944974421, 11944974422, 11944974423, 11944974424, 11944974425, 11944974426, 11944974427, 11944974428, 11944974421], "tags": {"amenity": "place_of_worship", "building": "yes", "religion": "hindu"}}, {"type": "way", "id": 1288279204, "nodes": [11947290698, 11947290699, 11947290700, 11947290701, 11947290702, 11947290703, 11947290704, 11947290698], "tags": {"amenity": "college"}}, {"type": "way", "id": 1288279205, "nodes": [11947290705, 11947290706, 11947290707, 11947290708, 11947290709, 11947290710, 11947290711, 11947290705], "tags": {"amenity": "college", "education": "college", "name": "JNTU-GV TRIBAL COLLEGE OF ENGINEERING, KURUPAM"}}, {"type": "way", "id": 1288279211, "nodes": [11947290743, 11947290744, 11947290745, 11947290746, 11947290743], "tags": {"amenity": "hospital", "healthcare": "hospital"}}, {"type": "way", "id": 1288279235, "nodes": [11947290901, 11947290902, 11947290903, 11947290904, 11947290901], "tags": {"amenity": "college", "name": "APTWRS PTG Bhadragiri"}}, {"type": "way", "id": 1288279236, "nodes": [11947290905, 11947290906, 11947290907, 11947290908, 11947290905], "tags": {"amenity": "college", "name": "Govt.jr college (st)"}}, {"type": "way", "id": 1290698670, "nodes": [11967097167, 11967097168, 11967117469, 11967117470, 11967097167], "tags": {"amenity": "place_of_worship", "building": "yes", "name": "Boddhidi Sivalayam Panchavarneswar", "religion": "hindu"}}, {"type": "way", "id": 1291182415, "nodes": [11971076982, 11971076989, 11971076983, 11971076984, 11971076985, 11971076987, 11971076982], "tags": {"leisure": "park", "name": "ITDA Park"}}, {"type": "way", "id": 1295363509, "nodes": [12003378120, 12003378121, 12003378122, 12003378123, 12003378120], "tags": {"amenity": "bank", "brand": "Andhra Pradesh Grameena Vikas Bank", "brand:en": "Andhra Pradesh Grameena Vikas Bank", "brand:te": "\u0c06\u0c02\u0c27\u0c4d\u0c30\u200c\u0c2a\u0c4d\u0c30\u200c\u0c26\u0c47\u0c36\u0c4d \u0c17\u0c4d\u0c30\u0c3e\u0c2e\u0c40\u0c23 \u0c35\u0c3f\u0c15\u0c3e\u0c38\u0c4d \u0c2c\u0c4d\u0c2f\u0c3e\u0c02\u0c15\u0c4d", "brand:wikidata": "Q18109664", "building": "yes", "image": "https://commons.wikimedia.org/wiki/File:Gramina_bank_in_kurupam.jpg", "name": "Andhra Pradesh Grameena Vikas Bank", "name:en": "Andhra Pradesh Grameena Vikas Bank", "name:te": "\u0c06\u0c02\u0c27\u0c4d\u0c30\u200c\u0c2a\u0c4d\u0c30\u200c\u0c26\u0c47\u0c36\u0c4d \u0c17\u0c4d\u0c30\u0c3e\u0c2e\u0c40\u0c23 \u0c35\u0c3f\u0c15\u0c3e\u0c38\u0c4d \u0c2c\u0c4d\u0c2f\u0c3e\u0c02\u0c15\u0c4d"}}, {"type": "way", "id": 1295371005, "nodes": [12003394098, 12003394099, 12003394100, 12003394101, 12003394098], "tags": {"amenity": "school", "name": "school in kurupam", "wikimedia_commons": "File:Government school in kurupam.jpg"}}, {"type": "way", "id": 1413441547, "nodes": [12989267110, 12989267111, 12989267112, 12989267113, 12989267110], "tags": {"amenity": "place_of_worship", "building": "yes", "name": "Ramalayam", "religion": "hindu", "service_times": "6AM-10PM"}}, {"type": "way", "id": 1424187741, "nodes": [13089861857, 13089861858, 13089861859, 13089861860, 13089861861, 13089861862, 13089861857], "tags": {"amenity": "school", "name": "Andhra Pradesh Tribal Welfare Residential School , Tadhikonda"}}, {"type": "way", "id": 1446639542, "nodes": [13273315149, 13273315150, 13273315151, 13273315152, 13273315149], "tags": {"addr:city": "Pedabondapalli", "addr:district": "Parvathipuram Manyam", "addr:postcode": "535527", "amenity": "place_of_worship", "building": "yes", "name": "Sairam Temple", "religion": "hindu"}}, {"type": "way", "id": 1471792143, "nodes": [13505143985, 13505143986, 13505143987, 13505143988, 13505143989, 13505143990, 13505143991, 13505143992, 13505143985], "tags": {"amenity": "college", "education": "college", "name": "Government Degree college"}}, {"type": "way", "id": 1486315226, "nodes": [13625081178, 13625081179, 13625081180, 13625081181, 13625081182, 13625081183, 13625081184, 13625081185, 13625081178], "tags": {"amenity": "school", "education": "school", "name": "APTWAH School , Duddukhallu"}}, {"type": "way", "id": 1495787321, "nodes": [13703073293, 13703073294, 13703073295, 13703073296, 13703073297, 13703073298, 13703073293], "tags": {"amenity": "school", "education": "school", "name": "AP Model School , Kurupam"}}]}