{"version": 0.6, "generator": "Overpass API 0.7.62.11 87bfad18", "osm3s": {"timestamp_osm_base": "2026-04-24T05:36:14Z", "copyright": "The data included in this document is from www.openstreetmap.org. The data is made available under ODbL."}, "elements": [{"type": "node", "id": 1795333937, "lat": 19.8885274, "lon": 86.0977422}, {"type": "node", "id": 1795333938, "lat": 19.8887312, "lon": 86.0968532}, {"type": "node", "id": 1795333940, "lat": 19.8890186, "lon": 86.096981}, {"type": "node", "id": 1795333942, "lat": 19.8891336, "lon": 86.0977089}, {"type": "node", "id": 1795333943, "lat": 19.8892172, "lon": 86.0964865}, {"type": "node", "id": 1795333945, "lat": 19.8893321, "lon": 86.0960975}, {"type": "node", "id": 1795333946, "lat": 19.8893582, "lon": 86.0952751}, {"type": "node", "id": 1795333949, "lat": 19.8897345, "lon": 86.0969199}, {"type": "node", "id": 1795333951, "lat": 19.8898755, "lon": 86.0975755}, {"type": "node", "id": 1795333954, "lat": 19.8901734, "lon": 86.0973255}, {"type": "node", "id": 1795333958, "lat": 19.8903249, "lon": 86.0969143}, {"type": "node", "id": 1795333959, "lat": 19.8903615, "lon": 86.0955363}, {"type": "node", "id": 2815695777, "lat": 19.8905744, "lon": 86.0976297, "tags": {"amenity": "hospital"}}, {"type": "node", "id": 2815695789, "lat": 19.8886104, "lon": 86.0956784, "tags": {"amenity": "place_of_worship", "historic": "archaeological_site", "religion": "hindu"}}, {"type": "node", "id": 4183308263, "lat": 19.8676681, "lon": 86.1107147, "tags": {"amenity": "restaurant", "name": "Wooden Restaurant"}}, {"type": "node", "id": 4183312970, "lat": 19.8880862, "lon": 86.0980448, "tags": {"amenity": "restaurant", "name": "Gitanjali restaurant"}}, {"type": "node", "id": 4183332747, "lat": 19.8886129, "lon": 86.0956062, "tags": {"amenity": "place_of_worship", "name": "Navagraha temple"}}, {"type": "node", "id": 4183405320, "lat": 19.8883447, "lon": 86.0983457, "tags": {"amenity": "place_of_worship", "name": "Maa Mangala temple"}}, {"type": "node", "id": 4704394496, "lat": 19.9035673, "lon": 86.190527, "tags": {"amenity": "restaurant"}}, {"type": "node", "id": 4704467690, "lat": 19.9003169, "lon": 86.197932, "tags": {"addr:street": "Nadiamath", "amenity": "bank", "brand:wikidata": "Q2003797", "brand:wikipedia": "en:Bank of Baroda", "name": "Bank of Baroda", "name:en": "Bank of Baroda", "short_name": "BoB", "website": "http://www.bankofbaroda.com"}}, {"type": "node", "id": 4805111260, "lat": 19.8913, "lon": 86.0892686}, {"type": "node", "id": 4805111261, "lat": 19.8897096, "lon": 86.0879839}, {"type": "node", "id": 4805111262, "lat": 19.8892279, "lon": 86.0886669}, {"type": "node", "id": 4805111263, "lat": 19.8908489, "lon": 86.0899516}, {"type": "node", "id": 4805111264, "lat": 19.8914452, "lon": 86.0908867}, {"type": "node", "id": 4805111265, "lat": 19.8907418, "lon": 86.090472}, {"type": "node", "id": 4805111266, "lat": 19.8904054, "lon": 86.0909924}, {"type": "node", "id": 4805111267, "lat": 19.8911394, "lon": 86.0914314}, {"type": "node", "id": 4805111268, "lat": 19.892923, "lon": 86.0871031}, {"type": "node", "id": 4805111269, "lat": 19.8926463, "lon": 86.086893}, {"type": "node", "id": 4805111270, "lat": 19.892418, "lon": 86.0872292}, {"type": "node", "id": 4805111271, "lat": 19.892699, "lon": 86.0874347}, {"type": "node", "id": 4805111272, "lat": 19.8922757, "lon": 86.0886611}, {"type": "node", "id": 4805111273, "lat": 19.8921066, "lon": 86.088535}, {"type": "node", "id": 4805111274, "lat": 19.8919836, "lon": 86.0887218}, {"type": "node", "id": 4805111275, "lat": 19.8921549, "lon": 86.0888503}, {"type": "node", "id": 4805424739, "lat": 19.8674118, "lon": 86.1101108}, {"type": "node", "id": 4805424740, "lat": 19.8671605, "lon": 86.1096914}, {"type": "node", "id": 4805424741, "lat": 19.8668976, "lon": 86.1098737}, {"type": "node", "id": 4805424742, "lat": 19.8671439, "lon": 86.1102948}, {"type": "node", "id": 5851424585, "lat": 19.8845258, "lon": 86.0982948, "tags": {"amenity": "restaurant", "name": "Okaasan"}}, {"type": "node", "id": 7081686579, "lat": 20.0010502, "lon": 86.1982286, "tags": {"addr:district": "Puri", "addr:full": "Anandbazar, Kakatpur", "addr:postcode": "752108", "addr:state": "Odisha", "amenity": "hospital", "name": "Maa Mangala Clinic", "source": "OpenGovernmentData"}}, {"type": "node", "id": 7085481889, "lat": 19.9958876, "lon": 86.2022254, "tags": {"addr:district": "Puri", "addr:full": "C/O-Prachi Youth Social Organisation, Kakatpur", "addr:postcode": "752108", "addr:state": "Odisha", "amenity": "hospital", "name": "Agadhu Kamala Hospital", "source": "OpenGovernmentData"}}, {"type": "node", "id": 7210863469, "lat": 20.0015257, "lon": 86.1979512, "tags": {"addr:city": "Kakatpur", "addr:district": "Puri", "addr:full": "Kakatpur-Astaranga Road, Near LIC Of India, Kakatpur", "addr:postcode": "752108", "addr:state": "Odisha", "amenity": "hospital", "healthcare": "hospital", "healthcare:speciality": "general", "name": "Govt Hospital, Kakatpur", "operator": "Govt Of Odisha", "operator:type": "government", "source": "OpenGovernmentData"}}, {"type": "node", "id": 7701568104, "lat": 20.0013158, "lon": 86.2051932, "tags": {"addr:district": "Puri", "addr:full": "Kakatpur", "addr:postcode": "752108", "addr:state": "Odhisa", "amenity": "hospital", "name": "Agadhu Kamala Hospital", "source": "Local Knowledge"}}, {"type": "node", "id": 7701568121, "lat": 19.9278299, "lon": 86.1071828, "tags": {"addr:district": "Puri", "addr:full": "Nua Hata-Konark Road, Anasara", "addr:postcode": "752111", "addr:state": "Odhisa", "amenity": "clinic", "name": "Dr. Manoranjan Maharana Clinic", "source": "Local Knowledge"}}, {"type": "node", "id": 7701568129, "lat": 19.9506189, "lon": 86.1851444, "tags": {"addr:district": "Puri", "addr:full": "Asijanga", "addr:postcode": "752118", "addr:state": "Odhisa", "amenity": "clinic", "name": "Maa Managala Clinic", "source": "Local Knowledge"}}, {"type": "node", "id": 7701568141, "lat": 19.9398528, "lon": 86.2248943, "tags": {"addr:district": "Puri", "addr:full": "Siso", "addr:postcode": "752109", "addr:state": "Odhisa", "amenity": "hospital", "name": "Ratnapur Hospital", "source": "Local Knowledge"}}, {"type": "node", "id": 7701568142, "lat": 19.9135656, "lon": 86.153337, "tags": {"addr:city": "Balidokan", "addr:district": "Puri", "addr:full": "Balidokan", "addr:postcode": "752111", "addr:state": "Odhisa", "amenity": "clinic", "healthcare": "clinic", "healthcare:speciality": "general", "name": "Dr. B.C Panda Clinic", "source": "Local Knowledge"}}, {"type": "node", "id": 10562204809, "lat": 19.8890494, "lon": 86.1006315, "tags": {"amenity": "bus_station", "name:en": "Bus to Puri"}}, {"type": "node", "id": 10741910510, "lat": 20.0131398, "lon": 86.1175375, "tags": {"addr:city": "Kolar", "addr:district": "Puri", "addr:postcode": "752107", "amenity": "school", "grades": "1-4", "name": "Kolar Primary School", "operator": "Goverment", "operator:type": "government"}}, {"type": "node", "id": 10741922773, "lat": 20.0120334, "lon": 86.1201643, "tags": {"addr:city": "Kolar", "addr:district": "Puri", "addr:postcode": "752107", "amenity": "place_of_worship", "name": "Maa Nilakantheswari Temple", "religion": "hindu"}}, {"type": "node", "id": 11668828074, "lat": 20.0066486, "lon": 86.1878812, "tags": {"addr:city": "Kakatpur", "addr:district": "Puri", "amenity": "bus_station", "bus": "yes", "name": "Kakatpur New Bus Stand", "network": "Goverment", "operator": "OSRTC", "public_transport": "station"}}, {"type": "node", "id": 11668832873, "lat": 20.0072892, "lon": 86.1861549, "tags": {"addr:city": "Kakatpur", "addr:district": "Puri", "name": "Reliance Smart Point", "opening_hours": "Mo-Su 09:00-21:00", "operator": "Reliance", "payment:cash": "yes", "payment:credit_cards": "yes", "payment:debit_cards": "yes", "shop": "mall"}}, {"type": "node", "id": 11744774064, "lat": 20.0085195, "lon": 86.1851757, "tags": {"addr:city": "Kakatpur", "addr:district": "Puri", "amenity": "restaurant", "cuisine": "indian", "diet:non-vegetarian": "yes", "diet:vegetarian": "yes", "name": "Hotel Rukuma", "opening_hours": "Mo-Su 10:00-22:00"}}, {"type": "node", "id": 11744780399, "lat": 20.0050037, "lon": 86.1897751, "tags": {"addr:city": "Kakatpur", "addr:district": "Puri", "amenity": "bank", "atm": "yes", "branch": "Kakatpur", "brand": "Bank of Baroda", "brand:wikidata": "Q2003797", "name": "Bank of Baroda", "opening_hours": "Mo-Fr 09:00-17:00", "operator": "Bank of Baroda"}}, {"type": "node", "id": 11744795865, "lat": 20.0052306, "lon": 86.1899403, "tags": {"addr:city": "Kakatpur", "addr:district": "Puri", "amenity": "restaurant", "cuisine": "indian", "diet:non-vegetarian": "yes", "diet:vegetarian": "yes", "name": "Mahaveer Hotel", "opening_hours": "Mo-Su 12:00-22:00"}}, {"type": "node", "id": 11744816925, "lat": 20.006039, "lon": 86.187754, "tags": {"addr:city": "Kakatpur", "addr:district": "Puri", "amenity": "restaurant", "cuisine": "indian", "diet:non-vegetarian": "yes", "diet:vegetarian": "yes", "name": "Jeje Dhaba", "opening_hours": "Mo-Su 12:00-22:00"}}, {"type": "node", "id": 11744819204, "lat": 20.0068311, "lon": 86.1874483, "tags": {"addr:city": "Kakatpur", "addr:district": "Puri", "amenity": "restaurant", "cuisine": "chinese;indian", "diet:non-vegetarian": "yes", "diet:vegetarian": "yes", "name": "Biswajeet Dhaba and Fastfood", "opening_hours": "Mo-Su 12:00-22:00"}}, {"type": "node", "id": 11744889023, "lat": 20.0032499, "lon": 86.1878637, "tags": {"addr:city": "Kakatpur", "addr:district": "Puri", "amenity": "college", "name": "Mangala Mahavidhyalaya", "operator": "Govt Of Odisha", "operator:type": "government"}}, {"type": "node", "id": 11744912894, "lat": 19.9998702, "lon": 86.194795, "tags": {"addr:city": "Kakatpur", "addr:district": "Puri", "amenity": "place_of_worship", "denomination": "hindu", "name": "Maa Mangala Temple", "religion": "hindu"}}, {"type": "node", "id": 11744922286, "lat": 20.0029564, "lon": 86.1942973, "tags": {"addr:city": "Kakatpur", "addr:district": "Puri", "amenity": "school", "grades": "1-10", "name": "Govt Nodal High School Kakatpur", "operator": "Govt Of Odisha", "operator:type": "government"}}, {"type": "node", "id": 11744922291, "lat": 20.0038005, "lon": 86.1918538, "tags": {"addr:city": "Kakatpur", "addr:district": "Puri", "amenity": "restaurant", "cuisine": "indian", "diet:vegetarian": "yes", "name": "Babaji Sahoo Sweet", "opening_hours": "Mo-Su 07:00-22:00", "phone": "06758 231234"}}, {"type": "node", "id": 11745765689, "lat": 20.0051926, "lon": 86.1900557, "tags": {"amenity": "atm", "brand": "State Bank of India", "brand:wikidata": "Q1340361", "cash_in": "no", "currency:rupee": "yes", "drive_through": "no", "name": "State Bank Of India", "operator": "State Bank of India", "operator:wikidata": "Q1340361", "short_name": "SBI"}}, {"type": "node", "id": 11745777394, "lat": 20.0049997, "lon": 86.1897953, "tags": {"amenity": "atm", "brand": "Bank of Baroda", "brand:wikidata": "Q2003797", "cash_in": "no", "currency:rupee": "yes", "drive_through": "no", "name": "Bank Of Baroda ATM", "operator": "Bank of Baroda", "operator:wikidata": "Q2003797"}}, {"type": "node", "id": 11745791857, "lat": 20.0051932, "lon": 86.1900741, "tags": {"addr:city": "Kakatpur", "addr:district": "Puri", "amenity": "bank", "atm": "yes", "branch": "Kakatpur", "brand": "State Bank of India", "brand:wikidata": "Q1340361", "drive_through": "no", "name": "State Bank of India", "opening_hours": "Mo-Fr 09:00-17:00", "operator": "State Bank Of India", "short_name": "SBI"}}, {"type": "node", "id": 11748339260, "lat": 20.0039596, "lon": 86.1915908, "tags": {"amenity": "atm", "brand": "State Bank of India", "brand:wikidata": "Q1340361", "cash_in": "no", "currency:rupee": "yes", "drive_through": "yes", "name": "State Bank Of India", "operator": "State Bank of India", "operator:wikidata": "Q1340361", "short_name": "SBI"}}, {"type": "node", "id": 11748345126, "lat": 20.003237, "lon": 86.1921885, "tags": {"amenity": "atm", "brand": "IDBI Bank", "brand:wikidata": "Q3633485", "cash_in": "no", "currency:rupee": "yes", "drive_through": "no", "name": "IDBI Bank", "operator": "IDBI Bank", "operator:wikidata": "Q3633485", "short_name": "IDBI"}}, {"type": "node", "id": 11748373636, "lat": 20.0032231, "lon": 86.1922107, "tags": {"addr:city": "Kakatpur", "addr:district": "Puri", "amenity": "bank", "atm": "yes", "brand": "IDBI Bank", "brand:wikidata": "Q3633485", "drive_through": "no", "name": "IDBI Bank", "opening_hours": "Mo-Fr 09:00-17:00", "operator": "IDBI Bank", "short_name": "IDBI"}}, {"type": "node", "id": 11748392697, "lat": 20.0037326, "lon": 86.1919149, "tags": {"amenity": "atm", "brand": "Odisha Gramya Bank", "brand:en": "Odisha Gramya Bank", "brand:or": "\u0b13\u0b21\u0b3c\u0b3f\u0b36\u0b3e \u0b17\u0b4d\u0b30\u0b3e\u0b2e\u0b4d\u0b5f \u0b2c\u0b4d\u0b5f\u0b3e\u0b19\u0b4d\u0b15", "brand:wikidata": "Q18356206", "cash_in": "no", "currency:INR": "yes", "drive_through": "no", "name": "Odisha Gramya Bank", "name:en": "Odisha Gramya Bank", "name:or": "\u0b13\u0b21\u0b3c\u0b3f\u0b36\u0b3e \u0b17\u0b4d\u0b30\u0b3e\u0b2e\u0b4d\u0b5f \u0b2c\u0b4d\u0b5f\u0b3e\u0b19\u0b4d\u0b15", "operator": "Odisha Gramya Bank", "operator:wikidata": "Q18356206"}}, {"type": "node", "id": 11749395116, "lat": 20.0021569, "lon": 86.1959637, "tags": {"addr:city": "Kakatpur", "addr:district": "Puri", "amenity": "bank", "atm": "yes", "branch": "Kakatpur", "brand": "UCO Bank", "brand:wikidata": "Q2005310", "drive_through": "no", "name": "UCO Bank", "opening_hours": "Mo-Fr 09:00-17:00", "operator": "UCO Bank"}}, {"type": "node", "id": 11749402754, "lat": 20.0015273, "lon": 86.1961902, "tags": {"addr:city": "Kakatpur", "addr:district": "Puri", "amenity": "hospital", "healthcare": "hospital", "healthcare:speciality": "general", "name": "Shree Sai Hospital", "operator": "Private"}}, {"type": "node", "id": 11749409971, "lat": 20.0023597, "lon": 86.1948118, "tags": {"amenity": "atm", "brand": "State Bank of India", "brand:wikidata": "Q1340361", "cash_in": "no", "currency:rupee": "yes", "drive_through": "no", "name": "State Bank Of India", "operator": "State Bank of India", "operator:wikidata": "Q1340361", "short_name": "SBI"}}, {"type": "node", "id": 11749410501, "lat": 20.0021657, "lon": 86.1959114, "tags": {"amenity": "atm", "brand": "UCO Bank", "brand:wikidata": "Q2005310", "cash_in": "no", "currency:rupee": "yes", "drive_through": "no", "name": "UCO Bank ATM", "operator": "UCO Bank", "operator:wikidata": "Q2005310"}}, {"type": "node", "id": 11749419787, "lat": 20.0023587, "lon": 86.1948922, "tags": {"amenity": "atm", "brand": "HDFC Bank", "brand:wikidata": "Q631047", "cash_in": "no", "currency:rupee": "yes", "drive_through": "no", "name": "HDFC Bank ATM", "operator": "HDFC Bank", "operator:wikidata": "Q631047", "short_name": "HDFC"}}, {"type": "node", "id": 11749431419, "lat": 20.0004495, "lon": 86.200225, "tags": {"addr:city": "Kakatpur", "addr:district": "Puri", "amenity": "bank", "atm": "yes", "branch": "Kakatpur", "brand": "HDFC Bank", "brand:wikidata": "Q631047", "drive_through": "no", "name": "HDFC Bank", "opening_hours": "Mo-Fr 09:00-17:00", "operator": "HDFC Bank", "short_name": "HDFC"}}, {"type": "node", "id": 11749448323, "lat": 20.0006696, "lon": 86.2001274, "tags": {"addr:city": "Kakatpur", "addr:district": "Puri", "amenity": "bank", "atm": "no", "branch": "Kakatpur", "brand": "Axis Bank", "brand:wikidata": "Q2003549", "drive_through": "no", "name": "Axis Bank", "opening_hours": "Mo-Fr 09:00-17:00", "operator": "Axis Bank"}}, {"type": "node", "id": 11750667281, "lat": 19.9995669, "lon": 86.2070252, "tags": {"addr:city": "Kakatpur", "addr:district": "Puri", "amenity": "place_of_worship", "denomination": "hindu", "name": "Sameswar Mahadev Temple", "opening_hours": "Mo-Su 06:00-21:00", "religion": "hindu"}}, {"type": "node", "id": 11753147671, "lat": 19.9970321, "lon": 86.2180135, "tags": {"addr:city": "Dahikhia", "addr:district": "Puri", "amenity": "school", "grades": "1-4", "name": "Dahikhia Primary School", "operator": "Govt of Odisha", "operator:type": "government"}}, {"type": "node", "id": 11753167608, "lat": 19.9815062, "lon": 86.2543095, "tags": {"addr:city": "Kuhudi", "addr:district": "Puri", "amenity": "school", "grades": "1-7", "name": "Kuhudi Govt U.G.U.P School", "operator": "Govt Of Odisha", "operator:type": "government"}}, {"type": "node", "id": 11761261085, "lat": 19.9799948, "lon": 86.2584005, "tags": {"amenity": "atm", "brand": "UCO Bank", "brand:wikidata": "Q2005310", "cash_in": "no", "currency:rupee": "yes", "drive_through": "no", "name": "UCO Bank ATM", "operator": "UCO Bank", "operator:wikidata": "Q2005310"}}, {"type": "node", "id": 11761336218, "lat": 19.9800089, "lon": 86.2583706, "tags": {"addr:city": "Astarang", "addr:district": "Puri", "amenity": "bank", "atm": "yes", "branch": "Astaranga", "brand": "UCO Bank", "brand:wikidata": "Q2005310", "drive_through": "no", "name": "UCO Bank", "opening_hours": "Mo-Fr 09:00-17:00", "operator": "UCO Bank"}}, {"type": "node", "id": 11761363473, "lat": 19.9800405, "lon": 86.2583146, "tags": {"amenity": "atm", "cash_in": "no", "currency:rupee": "yes", "drive_through": "no", "network": "Indicash", "operator": "Indicash"}}, {"type": "node", "id": 11761365678, "lat": 19.9798025, "lon": 86.2605695, "tags": {"amenity": "atm", "cash_in": "no", "currency:rupee": "yes", "drive_through": "no", "network": "Union Bank", "operator": "Union Bank ATM"}}, {"type": "node", "id": 11761369578, "lat": 19.9715999, "lon": 86.255899, "tags": {"addr:city": "Astaranga", "addr:district": "Puri", "amenity": "college", "name": "Astaranga College", "operator": "Govt Of Odisha", "operator:type": "government"}}, {"type": "node", "id": 11761375719, "lat": 19.9798007, "lon": 86.2605359, "tags": {"addr:city": "Astarang", "addr:district": "Puri", "amenity": "bank", "atm": "yes", "branch": "Astaranga", "drive_through": "no", "name": "Union Bank", "opening_hours": "Mo-Fr 09:00-17:00", "operator": "Union Bank"}}, {"type": "node", "id": 11761395619, "lat": 19.9791646, "lon": 86.2619256, "tags": {"addr:city": "Astarang", "addr:district": "Puri", "addr:postcode": "752109", "amenity": "bank", "atm": "yes", "branch": "Astarang", "brand": "State Bank of India", "brand:wikidata": "Q1340361", "drive_through": "no", "name": "State Bank of India", "opening_hours": "Mo-Fr 09:00-17:00", "operator": "State Bank Of India", "short_name": "SBI"}}, {"type": "node", "id": 11761404713, "lat": 19.979153, "lon": 86.2619614, "tags": {"amenity": "atm", "brand": "State Bank of India", "brand:wikidata": "Q1340361", "cash_in": "no", "currency:rupee": "yes", "drive_through": "no", "name": "State Bank Of india ATM", "operator": "State Bank of India", "operator:wikidata": "Q1340361", "short_name": "SBI"}}, {"type": "node", "id": 11763801997, "lat": 19.9786895, "lon": 86.2646303, "tags": {"addr:city": "Astaranga", "addr:district": "Puri", "amenity": "place_of_worship", "denomination": "hindu", "name": "Maa Tarani Temple", "religion": "hindu"}}, {"type": "node", "id": 11763832142, "lat": 19.9783341, "lon": 86.2650244, "tags": {"amenity": "atm", "brand": "Axis Bank", "brand:wikidata": "Q2003549", "cash_in": "no", "currency:rupee": "yes", "drive_through": "no", "name": "Axis Bank ATM", "operator": "Axis Bank", "operator:wikidata": "Q2003549"}}, {"type": "node", "id": 11763850196, "lat": 19.978406, "lon": 86.2655298, "tags": {"addr:city": "Astaranga", "addr:district": "Puri", "amenity": "bank", "atm": "yes", "branch": "Astaranga", "brand": "Canara Bank", "brand:en": "Canara Bank", "brand:hi": "\u0915\u0947\u0928\u0930\u093e \u092c\u0948\u0902\u0915", "brand:kn": "\u0c95\u0cc6\u0ca8\u0cb0\u0cbe \u0cac\u0ccd\u0caf\u0cbe\u0c82\u0c95\u0ccd", "brand:pa": "\u0a15\u0a47\u0a28\u0a30\u0a3e \u0a2c\u0a48\u0a02\u0a15", "brand:pnb": "\u06a9\u06cc\u0646\u0631\u0627 \u0628\u06cc\u0646\u06a9", "brand:ur": "\u06a9\u06cc\u0646\u0631\u0627 \u0628\u06cc\u0646\u06a9", "brand:wikidata": "Q2003777", "drive_through": "no", "name": "Canara Bank", "name:en": "Canara Bank", "name:hi": "\u0915\u0947\u0928\u0930\u093e \u092c\u0948\u0902\u0915", "name:kn": "\u0c95\u0cc6\u0ca8\u0cb0\u0cbe \u0cac\u0ccd\u0caf\u0cbe\u0c82\u0c95\u0ccd", "name:pa": "\u0a15\u0a47\u0a28\u0a30\u0a3e \u0a2c\u0a48\u0a02\u0a15", "name:pnb": "\u06a9\u06cc\u0646\u0631\u0627 \u0628\u06cc\u0646\u06a9", "name:ur": "\u06a9\u06cc\u0646\u0631\u0627 \u0628\u06cc\u0646\u06a9", "opening_hours": "Mo-Fr 09:00-17:00"}}, {"type": "node", "id": 11763865017, "lat": 19.9784033, "lon": 86.2655511, "tags": {"amenity": "atm", "brand": "Canara Bank", "brand:en": "Canara Bank", "brand:hi": "\u0915\u0947\u0928\u0930\u093e \u092c\u0948\u0902\u0915", "brand:kn": "\u0c95\u0cc6\u0ca8\u0cb0\u0cbe \u0cac\u0ccd\u0caf\u0cbe\u0c82\u0c95\u0ccd", "brand:pa": "\u0a15\u0a47\u0a28\u0a30\u0a3e \u0a2c\u0a48\u0a02\u0a15", "brand:pnb": "\u06a9\u06cc\u0646\u0631\u0627 \u0628\u06cc\u0646\u06a9", "brand:ur": "\u06a9\u06cc\u0646\u0631\u0627 \u0628\u06cc\u0646\u06a9", "brand:wikidata": "Q2003777", "cash_in": "no", "currency:rupee": "yes", "drive_through": "no", "name": "Canara Bank ATM", "name:en": "Canara Bank", "name:hi": "\u0915\u0947\u0928\u0930\u093e \u092c\u0948\u0902\u0915", "name:kn": "\u0c95\u0cc6\u0ca8\u0cb0\u0cbe \u0cac\u0ccd\u0caf\u0cbe\u0c82\u0c95\u0ccd", "name:pa": "\u0a15\u0a47\u0a28\u0a30\u0a3e \u0a2c\u0a48\u0a02\u0a15", "name:pnb": "\u06a9\u06cc\u0646\u0631\u0627 \u0628\u06cc\u0646\u06a9", "name:ur": "\u06a9\u06cc\u0646\u0631\u0627 \u0628\u06cc\u0646\u06a9", "operator": "Canara Bank", "operator:wikidata": "Q2003777"}}, {"type": "node", "id": 11763870166, "lat": 19.9781598, "lon": 86.2661131, "tags": {"addr:city": "Astaranga", "addr:district": "Puri", "amenity": "bank", "atm": "no", "branch": "Astaranga", "brand": "Indian Bank", "brand:wikidata": "Q2003789", "drive_through": "no", "name": "Indian Bank", "opening_hours": "Mo-Fr 09:00-17:00", "operator": "Indian Bank"}}, {"type": "node", "id": 11763912621, "lat": 19.9769743, "lon": 86.2662961, "tags": {"addr:city": "Astaranga", "addr:district": "Puri", "amenity": "school", "grades": "1-10", "name": "Astaranga Govt High School", "operator": "Govt Of Odisha", "operator:type": "government"}}, {"type": "node", "id": 11763921752, "lat": 20.0075686, "lon": 86.175015, "tags": {"addr:city": "Othaka", "addr:district": "Puri", "amenity": "school", "grades": "1-7", "name": "Aadarsh Urnata Higher Secondary School Othaka", "operator": "Govt Of Odisha"}}, {"type": "node", "id": 11763921766, "lat": 20.0076265, "lon": 86.1745701, "tags": {"addr:city": "Othaka", "addr:district": "Puri", "amenity": "bank", "atm": "no", "branch": "Othaka", "brand": "Union Bank of India", "brand:wikidata": "Q2004078", "drive_through": "no", "name": "Union Bank of India", "opening_hours": "Mo-Fr 09:00-17:00", "operator": "Union Bank Of India"}}, {"type": "node", "id": 11764003287, "lat": 19.9136042, "lon": 86.1532521, "tags": {"amenity": "atm", "brand": "Bank of Baroda", "brand:wikidata": "Q2003797", "cash_in": "no", "currency:rupee": "yes", "drive_through": "no", "name": "Bank of Baroda ATM", "operator": "Bank of Baroda", "operator:wikidata": "Q2003797"}}, {"type": "node", "id": 11764026383, "lat": 19.9136148, "lon": 86.1532309, "tags": {"addr:city": "Balidokan", "addr:district": "Puri", "amenity": "bank", "atm": "yes", "branch": "Balidokan", "brand": "Bank of Baroda", "brand:wikidata": "Q2003797", "drive_through": "no", "name": "Bank of Baroda", "opening_hours": "Mo-Fr 09:00-17:00", "operator": "Bank Of Baroda"}}, {"type": "node", "id": 11764026874, "lat": 19.9124713, "lon": 86.1523342, "tags": {"addr:city": "Balidokan", "addr:district": "Puri", "amenity": "school", "grades": "1-10", "name": "Bateswar High School Balidokan", "operator": "Govt Of Odisha", "operator:type": "government"}}, {"type": "node", "id": 11769042724, "lat": 19.9103717, "lon": 86.1508082, "tags": {"addr:city": "Balidokan", "addr:district": "Puri", "amenity": "school", "grades": "1 to 5", "name": "Saraswati Sishu Mandir Balidokan"}}, {"type": "node", "id": 11769049944, "lat": 19.9092172, "lon": 86.1496604, "tags": {"addr:city": "Balidokan", "addr:district": "Puri", "amenity": "place_of_worship", "name": "Baba Bateswar Temple", "religion": "hindu"}}, {"type": "node", "id": 11769051744, "lat": 19.8977992, "lon": 86.1137769, "tags": {"addr:city": "Konark", "addr:district": "Puri", "addr:postcode": "752111", "amenity": "place_of_worship", "name": "Hanuman Temple", "religion": "hindu"}}, {"type": "node", "id": 11769067725, "lat": 19.8958258, "lon": 86.1236518, "tags": {"addr:city": "Kunja", "addr:district": "Puri", "amenity": "school", "grades": "1-10", "name": "Odisha Adarsha Vidhyalaya", "operator": "Govt Of Odisha", "operator:type": "government"}}, {"type": "node", "id": 11769072044, "lat": 19.8979684, "lon": 86.1162689, "tags": {"addr:city": "Kunja", "addr:district": "Puri", "amenity": "school", "grades": "1 to 5", "name": "Kunja Primary School", "operator": "Govt Of Odisha", "operator:type": "government"}}, {"type": "node", "id": 11769074722, "lat": 19.8976346, "lon": 86.1134417, "tags": {"addr:city": "Konark", "addr:district": "Puri", "addr:postcode": "752111", "amenity": "place_of_worship", "name": "Gundicha Temple Konark", "religion": "hindu"}}, {"type": "node", "id": 11769105372, "lat": 19.8925971, "lon": 86.1035051, "tags": {"addr:city": "Konark", "addr:district": "Puri", "addr:postcode": "752111", "amenity": "school", "grades": "1-10", "name": "Govt High School Konark", "operator": "Govt Of Odisha", "operator:type": "government"}}, {"type": "node", "id": 11769119026, "lat": 19.891183, "lon": 86.1021442, "tags": {"addr:city": "Konark", "addr:district": "Puri", "addr:postcode": "752111", "amenity": "bus_station", "bus": "yes", "name": "Konark Bus Stand", "operator": "OSRTC", "public_transport": "station"}}, {"type": "node", "id": 11780563518, "lat": 19.8883082, "lon": 86.0979845, "tags": {"amenity": "atm", "brand": "State Bank of India", "brand:wikidata": "Q1340361", "cash_in": "no", "currency:rupee": "yes", "drive_through": "no", "name": "State Bank Of India", "operator": "State Bank of India", "operator:wikidata": "Q1340361", "short_name": "SBI"}}, {"type": "node", "id": 11780564736, "lat": 19.8887397, "lon": 86.0979544, "tags": {"amenity": "atm", "brand": "HDFC Bank", "brand:wikidata": "Q631047", "cash_in": "no", "currency:rupee": "yes", "drive_through": "no", "name": "HDFC Bank ATM", "network": "HDFC Bank", "operator": "HDFC Bank", "operator:wikidata": "Q631047", "short_name": "HDFC"}}, {"type": "node", "id": 11780591959, "lat": 19.8906249, "lon": 86.0903375, "tags": {"amenity": "atm", "brand": "Canara Bank", "brand:en": "Canara Bank", "brand:hi": "\u0915\u0947\u0928\u0930\u093e \u092c\u0948\u0902\u0915", "brand:kn": "\u0c95\u0cc6\u0ca8\u0cb0\u0cbe \u0cac\u0ccd\u0caf\u0cbe\u0c82\u0c95\u0ccd", "brand:pa": "\u0a15\u0a47\u0a28\u0a30\u0a3e \u0a2c\u0a48\u0a02\u0a15", "brand:pnb": "\u06a9\u06cc\u0646\u0631\u0627 \u0628\u06cc\u0646\u06a9", "brand:ur": "\u06a9\u06cc\u0646\u0631\u0627 \u0628\u06cc\u0646\u06a9", "brand:wikidata": "Q2003777", "cash_in": "no", "currency:rupee": "yes", "drive_through": "no", "name": "Canara Bank ATM", "name:en": "Canara Bank", "name:hi": "\u0915\u0947\u0928\u0930\u093e \u092c\u0948\u0902\u0915", "name:kn": "\u0c95\u0cc6\u0ca8\u0cb0\u0cbe \u0cac\u0ccd\u0caf\u0cbe\u0c82\u0c95\u0ccd", "name:pa": "\u0a15\u0a47\u0a28\u0a30\u0a3e \u0a2c\u0a48\u0a02\u0a15", "name:pnb": "\u06a9\u06cc\u0646\u0631\u0627 \u0628\u06cc\u0646\u06a9", "name:ur": "\u06a9\u06cc\u0646\u0631\u0627 \u0628\u06cc\u0646\u06a9", "operator": "Canara Bank", "operator:wikidata": "Q2003777"}}, {"type": "node", "id": 11780609759, "lat": 19.8908842, "lon": 86.0900181, "tags": {"amenity": "atm", "brand": "Odisha Gramya Bank", "brand:en": "Odisha Gramya Bank", "brand:or": "\u0b13\u0b21\u0b3c\u0b3f\u0b36\u0b3e \u0b17\u0b4d\u0b30\u0b3e\u0b2e\u0b4d\u0b5f \u0b2c\u0b4d\u0b5f\u0b3e\u0b19\u0b4d\u0b15", "brand:wikidata": "Q18356206", "cash_in": "no", "currency:rupee": "yes", "drive_through": "no", "name": "Odisha Gramya Bank ATM", "name:en": "Odisha Gramya Bank", "name:or": "\u0b13\u0b21\u0b3c\u0b3f\u0b36\u0b3e \u0b17\u0b4d\u0b30\u0b3e\u0b2e\u0b4d\u0b5f \u0b2c\u0b4d\u0b5f\u0b3e\u0b19\u0b4d\u0b15", "operator": "Odisha Gramya Bank", "operator:wikidata": "Q18356206"}}, {"type": "node", "id": 11780614565, "lat": 19.8906451, "lon": 86.0902796, "tags": {"addr:city": "Konark", "addr:district": "Puri", "addr:postcode": "752111", "amenity": "bank", "atm": "yes", "branch": "Konark", "brand": "Canara Bank", "brand:en": "Canara Bank", "brand:hi": "\u0915\u0947\u0928\u0930\u093e \u092c\u0948\u0902\u0915", "brand:kn": "\u0c95\u0cc6\u0ca8\u0cb0\u0cbe \u0cac\u0ccd\u0caf\u0cbe\u0c82\u0c95\u0ccd", "brand:pa": "\u0a15\u0a47\u0a28\u0a30\u0a3e \u0a2c\u0a48\u0a02\u0a15", "brand:pnb": "\u06a9\u06cc\u0646\u0631\u0627 \u0628\u06cc\u0646\u06a9", "brand:ur": "\u06a9\u06cc\u0646\u0631\u0627 \u0628\u06cc\u0646\u06a9", "brand:wikidata": "Q2003777", "drive_through": "no", "name": "Canara Bank", "name:en": "Canara Bank", "name:hi": "\u0915\u0947\u0928\u0930\u093e \u092c\u0948\u0902\u0915", "name:kn": "\u0c95\u0cc6\u0ca8\u0cb0\u0cbe \u0cac\u0ccd\u0caf\u0cbe\u0c82\u0c95\u0ccd", "name:pa": "\u0a15\u0a47\u0a28\u0a30\u0a3e \u0a2c\u0a48\u0a02\u0a15", "name:pnb": "\u06a9\u06cc\u0646\u0631\u0627 \u0628\u06cc\u0646\u06a9", "name:ur": "\u06a9\u06cc\u0646\u0631\u0627 \u0628\u06cc\u0646\u06a9"}}, {"type": "node", "id": 11780627567, "lat": 19.8915449, "lon": 86.0894445, "tags": {"addr:city": "Konark", "addr:district": "Puri", "addr:postcode": "752111", "amenity": "bank", "atm": "no", "branch": "Konark", "brand": "Odisha Gramya Bank", "brand:en": "Odisha Gramya Bank", "brand:or": "\u0b13\u0b21\u0b3c\u0b3f\u0b36\u0b3e \u0b17\u0b4d\u0b30\u0b3e\u0b2e\u0b4d\u0b5f \u0b2c\u0b4d\u0b5f\u0b3e\u0b19\u0b4d\u0b15", "brand:wikidata": "Q18356206", "drive_through": "no", "name": "Odisha Gramya Bank", "name:en": "Odisha Gramya Bank", "name:or": "\u0b13\u0b21\u0b3c\u0b3f\u0b36\u0b3e \u0b17\u0b4d\u0b30\u0b3e\u0b2e\u0b4d\u0b5f \u0b2c\u0b4d\u0b5f\u0b3e\u0b19\u0b4d\u0b15", "operator": "Odisha Gramya Bank"}}, {"type": "node", "id": 11780633215, "lat": 19.8915431, "lon": 86.0893941, "tags": {"addr:city": "Konark", "addr:district": "Puri", "addr:postcode": "752111", "amenity": "bank", "atm": "yes", "branch": "Konark", "brand": "State Bank of India", "brand:wikidata": "Q1340361", "drive_through": "no", "name": "State Bank of India", "operator": "State Bank Of India", "short_name": "SBI"}}, {"type": "node", "id": 11780634278, "lat": 19.8907793, "lon": 86.0901619, "tags": {"amenity": "atm", "brand": "Axis Bank", "brand:wikidata": "Q2003549", "cash_in": "no", "currency:rupee": "yes", "drive_through": "no", "name": "Axis Bank ATM", "operator": "Axis Bank", "operator:wikidata": "Q2003549"}}, {"type": "node", "id": 11780640390, "lat": 19.8915993, "lon": 86.089353, "tags": {"amenity": "atm", "brand": "State Bank of India", "brand:wikidata": "Q1340361", "cash_in": "no", "currency:rupee": "yes", "drive_through": "yes", "name": "State Bank of India", "operator": "State Bank of India", "operator:wikidata": "Q1340361", "short_name": "SBI"}}, {"type": "node", "id": 11780654108, "lat": 19.89211, "lon": 86.0882733, "tags": {"amenity": "atm", "cash_in": "no", "currency:rupee": "yes", "drive_through": "no", "network": "Hitachi", "operator": "Hitachi ATM"}}, {"type": "node", "id": 11780665593, "lat": 19.889945, "lon": 86.0810359, "tags": {"addr:city": "Konark", "addr:district": "Puri", "addr:postcode": "752111", "amenity": "place_of_worship", "denomination": "hindu", "name": "Maa Bhagabati Temple", "religion": "hindu"}}, {"type": "node", "id": 11780666536, "lat": 19.9036992, "lon": 86.078654, "tags": {"amenity": "atm", "cash_in": "no", "currency:rupee": "yes", "drive_through": "no", "network": "Hitachi", "operator": "Hitachi ATM"}}, {"type": "node", "id": 11780668018, "lat": 19.8958613, "lon": 86.0859387, "tags": {"addr:city": "Konark", "addr:district": "Puri", "addr:postcode": "752111", "amenity": "college", "name": "Konark Bhagabati Mahavidhyalaya", "operator": "Govt Of Odisha", "operator:type": "government"}}, {"type": "way", "id": 168244400, "nodes": [1795333946, 1795333959, 1795333958, 1795333954, 1795333951, 1795333949, 1795333940, 1795333942, 1795333937, 1795333938, 1795333943, 1795333945, 1795333946], "tags": {"leisure": "park"}}, {"type": "way", "id": 488168362, "nodes": [4805111260, 4805111261, 4805111262, 4805111263, 4805111260], "tags": {"amenity": "school", "name": "Konark High School"}}, {"type": "way", "id": 488168363, "nodes": [4805111264, 4805111265, 4805111266, 4805111267, 4805111264], "tags": {"amenity": "school", "name": "Sevashram School"}}, {"type": "way", "id": 488168364, "nodes": [4805111268, 4805111269, 4805111270, 4805111271, 4805111268], "tags": {"amenity": "school", "name": "Vinoba Bhabe Vidyamandir", "name:etymology:wikidata": "Q13021"}}, {"type": "way", "id": 488168365, "nodes": [4805111272, 4805111273, 4805111274, 4805111275, 4805111272], "tags": {"amenity": "college", "name": "Xavier College"}}, {"type": "way", "id": 488205197, "nodes": [4805424739, 4805424740, 4805424741, 4805424742, 4805424739], "tags": {"leisure": "park", "name": "Jaidev Park"}}]}