{"version": 0.6, "generator": "Overpass API 0.7.62.11 87bfad18", "osm3s": {"timestamp_osm_base": "2026-04-24T05:34:05Z", "copyright": "The data included in this document is from www.openstreetmap.org. The data is made available under ODbL."}, "elements": [{"type": "node", "id": 3269960904, "lat": 20.483325, "lon": 84.2329433, "tags": {"amenity": "bus_station"}}, {"type": "node", "id": 4803028518, "lat": 20.7243273, "lon": 84.5345343, "tags": {"amenity": "school", "name": "Saraswati Sishu Vidyamandir"}}, {"type": "node", "id": 4803028519, "lat": 20.7248857, "lon": 84.5345189}, {"type": "node", "id": 4803028520, "lat": 20.7244938, "lon": 84.5350088}, {"type": "node", "id": 4803032821, "lat": 20.7251422, "lon": 84.5355449}, {"type": "node", "id": 4803032822, "lat": 20.7251883, "lon": 84.5354709}, {"type": "node", "id": 4803032823, "lat": 20.7255456, "lon": 84.5356558}, {"type": "node", "id": 4803032824, "lat": 20.7258338, "lon": 84.5350396}, {"type": "node", "id": 4803032825, "lat": 20.7255717, "lon": 84.5338067}, {"type": "node", "id": 4803032826, "lat": 20.7257573, "lon": 84.5339435}, {"type": "node", "id": 4803032827, "lat": 20.7256244, "lon": 84.5342278}, {"type": "node", "id": 4803032828, "lat": 20.7257774, "lon": 84.5343217}, {"type": "node", "id": 4803032829, "lat": 20.7256971, "lon": 84.534496}, {"type": "node", "id": 4803032830, "lat": 20.7251929, "lon": 84.5341849}, {"type": "node", "id": 4803032831, "lat": 20.7253635, "lon": 84.5339569}, {"type": "node", "id": 4803032832, "lat": 20.7250509, "lon": 84.5339658}, {"type": "node", "id": 4803032833, "lat": 20.7246847, "lon": 84.5337754}, {"type": "node", "id": 4803032834, "lat": 20.7245166, "lon": 84.5341482}, {"type": "node", "id": 4803032835, "lat": 20.7248302, "lon": 84.5343145}, {"type": "node", "id": 4803048214, "lat": 20.7215523, "lon": 84.5323878, "tags": {"amenity": "place_of_worship", "name": "Jagannath Temple", "religion": "hindu"}}, {"type": "node", "id": 4803067910, "lat": 20.7185511, "lon": 84.5369443, "tags": {"amenity": "hospital", "name": "Athmallik Hospital"}}, {"type": "node", "id": 5612886311, "lat": 20.8383598, "lon": 84.3221303, "tags": {"amenity": "bus_station", "bus": "yes", "name": "Boudh bus stand", "public_transport": "station"}}, {"type": "node", "id": 7087495295, "lat": 20.7188009, "lon": 84.5369987, "tags": {"addr:district": "Angul", "addr:full": "Athamallik", "addr:postcode": "759125", "addr:state": "Odisha", "amenity": "hospital", "name": "Sub-divisional Hospital, Athamallik", "source": "OpenGovernmentData"}}, {"type": "node", "id": 7206008556, "lat": 20.8405426, "lon": 84.3214765, "tags": {"addr:district": "Baudh", "addr:full": "Near Cdmo Office, Boudh, Boudh, Nh 57 Side", "addr:postcode": "762014", "addr:state": "Odisha", "addr:subdistrict": "Baunsuni", "amenity": "hospital", "description": "District Hospital", "name": "District Hospital Baudh", "source": "OpenGovernmentData"}}, {"type": "node", "id": 7214460911, "lat": 20.4857582, "lon": 84.2247118, "tags": {"addr:district": "Kandhamal", "addr:full": "District Headquater Hospital, Phulbani", "addr:postcode": "762001", "addr:state": "Odisha", "addr:subdistrict": "Phulabani Town", "amenity": "hospital", "description": "District Hospital", "name": "District Hospital,Phulbani", "source": "OpenGovernmentData"}}, {"type": "node", "id": 7713411892, "lat": 20.8405701, "lon": 84.3208514, "tags": {"addr:district": "Boudh", "addr:full": "Baudhagarh", "addr:postcode": "762014", "addr:state": "Odhisa", "amenity": "hospital", "name": "District TB Centre", "source": "Local Knowledge"}}, {"type": "node", "id": 7715655394, "lat": 20.6812021, "lon": 84.3847804, "tags": {"addr:district": "Boudh", "addr:full": "Baudh, NH-224, Boudh Banigucha Road, Harekrushnapur", "addr:postcode": "762013", "addr:state": "Odhisa", "amenity": "hospital", "name": "Government Hospital", "source": "Local Knowledge"}}, {"type": "node", "id": 7715655395, "lat": 20.4856491, "lon": 84.2258643, "tags": {"addr:district": "Kandhamal", "addr:full": "Electric Colony,Phulbani", "addr:postcode": "762001", "addr:state": "Odhisa", "amenity": "clinic", "name": "Bhagabati Clinic", "source": "Local Knowledge"}}, {"type": "node", "id": 7715655399, "lat": 20.4859141, "lon": 84.2261675, "tags": {"addr:district": "Kandhamal", "addr:full": "Phulbani", "addr:postcode": "762001", "addr:state": "Odhisa", "amenity": "clinic", "name": "Raju Clinic", "source": "Local Knowledge"}}, {"type": "node", "id": 7715655404, "lat": 20.6270959, "lon": 84.425644, "tags": {"addr:district": "Boudh", "addr:full": "Puranakatak", "addr:postcode": "762013", "addr:state": "Odhisa", "amenity": "hospital", "name": "Government Hospital", "source": "Local Knowledge"}}, {"type": "node", "id": 7715655410, "lat": 20.6270831, "lon": 84.4264652, "tags": {"addr:district": "Boudh", "addr:full": "Puranakatak", "addr:postcode": "762013", "addr:state": "Odhisa", "amenity": "clinic", "name": "Maa Bhairabi Patho Clinic Ananda", "source": "Local Knowledge"}}, {"type": "node", "id": 7715655419, "lat": 20.4493559, "lon": 84.5063345, "tags": {"addr:district": "Kandhamal", "addr:full": "Madhapur", "addr:postcode": "762012", "addr:state": "Odhisa", "amenity": "hospital", "name": "Government Ayurvedic Hospital", "source": "Local Knowledge"}}, {"type": "node", "id": 7715655422, "lat": 20.4854479, "lon": 84.2223537, "tags": {"addr:district": "Kandhamal", "addr:full": "Telecom Colony, Phulbani", "addr:postcode": "762002", "addr:state": "Odhisa", "amenity": "hospital", "name": "District Head Quarters Hospital", "source": "Local Knowledge"}}, {"type": "node", "id": 8166338531, "lat": 20.7196514, "lon": 84.5376223, "tags": {"addr:district": "Anugul", "addr:full": "Athmallik", "addr:postcode": "759125", "addr:state": "Odisha", "amenity": "hospital", "name": "Sub-District Hospital,Athmallik", "source": "Local Knowledge"}}, {"type": "node", "id": 12778552101, "lat": 20.4756496, "lon": 84.234669, "tags": {"amenity": "restaurant", "cuisine": "pizza;coffee_shop;burger;chinese;sandwich;indian;dessert", "name": "Shaktis caferestro", "website": "https://www.instagram.com/shaktis_caferestro/"}}, {"type": "way", "id": 487914765, "nodes": [4803028519, 4803028520, 4803032821, 4803032822, 4803032823, 4803032824, 4803028519], "tags": {"amenity": "school", "name": "Mahendra High School"}}, {"type": "way", "id": 487914766, "nodes": [4803032825, 4803032826, 4803032827, 4803032828, 4803032829, 4803032830, 4803032831, 4803032825], "tags": {"amenity": "bus_station", "building": "yes", "name": "Athmallik Bus Stand"}}, {"type": "way", "id": 487914769, "nodes": [4803032832, 4803032833, 4803032834, 4803032835, 4803032832], "tags": {"amenity": "school", "name": "Liptinga U. P School"}}]}