{"version": 0.6, "generator": "Overpass API 0.7.62.11 87bfad18", "osm3s": {"timestamp_osm_base": "2026-04-24T05:34:05Z", "copyright": "The data included in this document is from www.openstreetmap.org. The data is made available under ODbL."}, "elements": [{"type": "node", "id": 1639546366, "lat": 21.1009336, "lon": 85.0656037}, {"type": "node", "id": 1639546386, "lat": 21.100977, "lon": 85.065217}, {"type": "node", "id": 1639546498, "lat": 21.1011418, "lon": 85.0656511}, {"type": "node", "id": 1639546528, "lat": 21.1012172, "lon": 85.0652319}, {"type": "node", "id": 1639894191, "lat": 21.0978785, "lon": 85.0937254}, {"type": "node", "id": 1639894195, "lat": 21.0979308, "lon": 85.0928769}, {"type": "node", "id": 1639894344, "lat": 21.0987832, "lon": 85.0937921}, {"type": "node", "id": 1639894353, "lat": 21.0989274, "lon": 85.0929238}, {"type": "node", "id": 1639894371, "lat": 21.0990145, "lon": 85.0930455}, {"type": "node", "id": 1639894381, "lat": 21.0991041, "lon": 85.0931708}, {"type": "node", "id": 3215628151, "lat": 20.9420913, "lon": 84.6985243}, {"type": "node", "id": 3215628152, "lat": 20.9421621, "lon": 84.698602}, {"type": "node", "id": 3215628153, "lat": 20.9422894, "lon": 84.6983171}, {"type": "node", "id": 3215628156, "lat": 20.9423603, "lon": 84.6983947}, {"type": "node", "id": 4738327621, "lat": 20.9453468, "lon": 84.6606235, "tags": {"addr:street": "KATARANGA", "amenity": "bank", "email": "ariyanmantu@gmail.com", "operator": "ARIYAN MANTU", "phone": "919556966799"}}, {"type": "node", "id": 4738327821, "lat": 20.9458336, "lon": 84.6773092, "tags": {"addr:street": "KATARANGA, BOINDA", "amenity": "bank", "email": "ariyanmantu@gmail.com", "name": "SBI CSP, Easy Bill", "name:en": "SBI CSP, Easy Bill", "operator": "ARIYAN MANTU", "phone": "9556966799"}}, {"type": "node", "id": 7207956943, "lat": 20.960099, "lon": 85.0775068, "tags": {"addr:district": "Anugul", "addr:full": "Kalamchhiun", "addr:postcode": "759103", "addr:state": "Odisha", "addr:subdistrict": "Talcher Sadar", "amenity": "hospital", "description": "Government Hospital", "name": "Government Hospital, Kalamchhiun", "source": "OpenGovernmentData"}}, {"type": "node", "id": 7223110931, "lat": 20.9516647, "lon": 84.6863642, "tags": {"addr:district": "Anugul", "addr:full": "Infront Of Kishorenagar Police Station", "addr:postcode": "759126", "addr:state": "Odisha", "addr:subdistrict": "Handapa", "amenity": "hospital", "name": "Handapa Goverment Hospital", "source": "OpenGovernmentData"}}, {"type": "node", "id": 7713411894, "lat": 21.0866224, "lon": 84.8634301, "tags": {"addr:district": "Angul", "addr:full": "Chhendipadajungle", "addr:postcode": "759124", "addr:state": "Odhisa", "amenity": "clinic", "name": "Sai Care", "source": "Local Knowledge"}}, {"type": "node", "id": 7713411899, "lat": 21.1064912, "lon": 84.7679253, "tags": {"addr:district": "Angul", "addr:full": "Gadamandal", "addr:postcode": "759141", "addr:state": "Odhisa", "amenity": "hospital", "name": "Government Hospital", "source": "Local Knowledge"}}, {"type": "node", "id": 7713411922, "lat": 21.0817897, "lon": 85.0768664, "tags": {"addr:district": "Angul", "addr:full": "Talcher - Kaniha Road, Ambapal", "addr:postcode": "759117", "addr:state": "Odhisa", "amenity": "clinic", "healthcare": "clinic", "name": "Banadurga Clinic", "source": "Local Knowledge"}}, {"type": "node", "id": 7713411928, "lat": 21.08817, "lon": 85.0824517, "tags": {"addr:district": "Angul", "addr:full": "Rangabeda Road, Baradangua", "addr:postcode": "759117", "addr:state": "Odhisa", "amenity": "clinic", "healthcare": "clinic", "name": "Kalyani Nursing Home", "source": "Local Knowledge"}}, {"type": "node", "id": 7713411947, "lat": 21.2611085, "lon": 85.0214857, "tags": {"addr:district": "Angul", "addr:postcode": "759105", "addr:state": "Odhisa", "amenity": "clinic", "name": "Linakhi Health Care", "source": "Local Knowledge"}}, {"type": "node", "id": 7713411949, "lat": 21.105598, "lon": 84.815256, "tags": {"addr:district": "Angul", "addr:full": "Sapoinali", "addr:postcode": "759141", "addr:state": "Odhisa", "amenity": "clinic", "name": "Ashirbad Clinic", "source": "Local Knowledge"}}, {"type": "node", "id": 7713411951, "lat": 21.088407, "lon": 84.8575488, "tags": {"addr:district": "Angul", "addr:postcode": "759124", "addr:state": "Odhisa", "amenity": "hospital", "name": "Krish Hospital", "source": "Local Knowledge"}}, {"type": "node", "id": 7713411952, "lat": 21.0938227, "lon": 85.0540625, "tags": {"addr:district": "Angul", "addr:postcode": "759117", "addr:state": "Odhisa", "amenity": "hospital", "healthcare": "hospital", "name": "Kaniha Hospital", "source": "Local Knowledge"}}, {"type": "node", "id": 7713411954, "lat": 21.083188, "lon": 84.8714277, "tags": {"addr:district": "Angul", "addr:full": "Chhendipada Town Road, Chhendipada", "addr:postcode": "759124", "addr:state": "Odhisa", "amenity": "hospital", "name": "Dr. Chandramani Hospital", "source": "Local Knowledge"}}, {"type": "node", "id": 7713411955, "lat": 21.0424885, "lon": 85.0285527, "tags": {"addr:district": "Angul", "addr:full": "Angul", "addr:postcode": "759117", "addr:state": "Odhisa", "amenity": "clinic", "name": "Manas Clinic", "source": "Local Knowledge"}}, {"type": "node", "id": 12360994181, "lat": 21.0755001, "lon": 84.7485403, "tags": {"leisure": "park", "name": "patrapada maa bayanee park"}}, {"type": "way", "id": 151113258, "nodes": [1639546528, 1639546498, 1639546366, 1639546386, 1639546528], "tags": {"leisure": "park"}}, {"type": "way", "id": 151164785, "nodes": [1639894195, 1639894191, 1639894344, 1639894381, 1639894371, 1639894353, 1639894195], "tags": {"leisure": "park"}}, {"type": "way", "id": 315444889, "nodes": [3215628153, 3215628156, 3215628152, 3215628151, 3215628153], "tags": {"amenity": "restaurant", "building": "yes", "cuisine": "indian", "name": "Hotel Today"}}]}