{"version": 0.6, "generator": "Overpass API 0.7.62.11 87bfad18", "osm3s": {"timestamp_osm_base": "2026-04-24T05:31:00Z", "copyright": "The data included in this document is from www.openstreetmap.org. The data is made available under ODbL."}, "elements": [{"type": "node", "id": 7227522329, "lat": 18.2282941, "lon": 82.062329, "tags": {"addr:district": "Malkangiri", "addr:full": "Hospital, Balimela", "addr:postcode": "764051", "addr:state": "Odisha", "addr:subdistrict": "Orkel", "amenity": "hospital", "name": "B.H.E.P Hosp Orkel", "source": "OpenGovernmentData"}}, {"type": "node", "id": 11384879869, "lat": 17.997681, "lon": 82.1246204, "tags": {"amenity": "bus_station", "bus": "yes", "name": "Dharakonda Bus Stop", "public_transport": "station"}}, {"type": "node", "id": 11389272010, "lat": 17.9753744, "lon": 82.07603, "tags": {"amenity": "bus_station", "bus": "yes", "name": "Kummarithota Bus Stop", "public_transport": "station"}}, {"type": "node", "id": 11389376067, "lat": 18.0215125, "lon": 82.0901741, "tags": {"amenity": "bus_station", "bus": "yes", "name": "Duppalwada Bus Stop", "public_transport": "station"}}, {"type": "node", "id": 11389376068, "lat": 17.9812421, "lon": 82.1321387, "tags": {"amenity": "place_of_worship", "name": "Dharalamma Temple", "religion": "hindu"}}, {"type": "node", "id": 11389389969, "lat": 17.9812512, "lon": 82.1326798, "tags": {"amenity": "bus_station", "bus": "yes", "name": "Dharalamma Temple Bus Stop", "public_transport": "station"}}, {"type": "node", "id": 11391151029, "lat": 17.9658365, "lon": 81.9010243, "tags": {"amenity": "bus_station", "bus": "yes", "name": "Mangampadu Busn Stop", "public_transport": "station"}}, {"type": "node", "id": 11573868453, "lat": 18.0467544, "lon": 82.0331566, "tags": {"amenity": "school", "name": "ZPHS School"}}, {"type": "node", "id": 11573868467, "lat": 18.0474603, "lon": 82.0330326, "tags": {"amenity": "place_of_worship", "name": "Sri Rama Temple", "religion": "hindu"}}, {"type": "node", "id": 11573900265, "lat": 18.0461817, "lon": 82.0375596, "tags": {"amenity": "school", "name": "DAV School"}}, {"type": "node", "id": 11575913679, "lat": 18.0556498, "lon": 82.0349584, "tags": {"amenity": "place_of_worship", "name": "Ayyappa Swamy Temple", "religion": "hindu"}}, {"type": "node", "id": 11575913680, "lat": 18.0562196, "lon": 82.034901, "tags": {"amenity": "place_of_worship", "name": "Maramma Temple", "religion": "hindu"}}, {"type": "node", "id": 13296358477, "lat": 17.9817111, "lon": 82.1314158}, {"type": "node", "id": 13296358478, "lat": 17.98192, "lon": 82.1319417}, {"type": "node", "id": 13296358479, "lat": 17.9816891, "lon": 82.1325312}, {"type": "node", "id": 13296358480, "lat": 17.9812548, "lon": 82.1329618}, {"type": "node", "id": 13296358481, "lat": 17.980815, "lon": 82.1327335}, {"type": "node", "id": 13296358482, "lat": 17.9806556, "lon": 82.1318521}, {"type": "node", "id": 13296358483, "lat": 17.9811558, "lon": 82.1313782}, {"type": "way", "id": 1449626002, "nodes": [13296358477, 13296358478, 13296358479, 13296358480, 13296358481, 13296358482, 13296358483, 13296358477], "tags": {"amenity": "place_of_worship", "landuse": "religious", "name": "Dharalamma Temple", "religion": "hindu"}}]}