{"version": 0.6, "generator": "Overpass API 0.7.62.11 87bfad18", "osm3s": {"timestamp_osm_base": "2026-04-24T05:36:14Z", "copyright": "The data included in this document is from www.openstreetmap.org. The data is made available under ODbL."}, "elements": [{"type": "node", "id": 4459977389, "lat": 20.2019475, "lon": 86.4030566, "tags": {"amenity": "atm"}}, {"type": "node", "id": 6167861938, "lat": 20.2797192, "lon": 86.2936108, "tags": {"addr:city": "Jhankad", "amenity": "place_of_worship", "name": "Sarala Temple", "name:or": "\u0b36\u0b3e\u0b30\u0b33\u0b3e \u0b2e\u0b28\u0b4d\u0b26\u0b3f\u0b30", "religion": "hindu"}}, {"type": "node", "id": 6167881257, "lat": 20.3151933, "lon": 86.2648722, "tags": {"amenity": "place_of_worship", "name": "Gorekhnath Temple", "religion": "hindu"}}, {"type": "node", "id": 6170730674, "lat": 20.251009, "lon": 86.2547402, "tags": {"amenity": "place_of_worship", "name": "Khandeswar Temple", "name:or": "\u0b16\u0b23\u0b4d\u0b21\u0b47\u0b36\u0b4d\u0b35\u0b30 \u0b2e\u0b28\u0b4d\u0b26\u0b3f\u0b30", "religion": "hindu"}}, {"type": "node", "id": 6170834931, "lat": 20.2533135, "lon": 86.2292057, "tags": {"amenity": "place_of_worship", "name": "Kanak Durga", "religion": "hindu"}}, {"type": "node", "id": 7051157661, "lat": 20.2520275, "lon": 86.1810024, "tags": {"addr:district": "Jagatsinghapur", "addr:full": "Town Hall Road, Panisalia", "addr:postcode": "754103", "addr:state": "Odisha", "amenity": "clinic", "name": "Swastik Clinic And Nursing Home", "source": "OpenGovernmentData"}}, {"type": "node", "id": 7062382359, "lat": 20.2516977, "lon": 86.1798481, "tags": {"addr:district": "Jagatsinghapur", "addr:full": "Dhh,Jagatsinghapur", "addr:postcode": "754103", "addr:state": "Odisha", "amenity": "hospital", "name": "District Head Quarter Hospital, Jagatsinghpur", "source": "OpenGovernmentData"}}, {"type": "node", "id": 7085440127, "lat": 20.1305011, "lon": 86.0676593, "tags": {"addr:district": "Cuttack", "addr:full": "Niali", "addr:postcode": "754004", "addr:state": "Odisha", "amenity": "hospital", "name": "Chittaranjan Seva Sadan", "source": "OpenGovernmentData"}}, {"type": "node", "id": 7087305391, "lat": 20.2552246, "lon": 86.1897182, "tags": {"addr:district": "Jagatsinghapur", "addr:full": "Medical Road Opp Townhall", "addr:postcode": "754103", "addr:state": "Odisha", "amenity": "clinic", "name": "Cure Well Clinic And Nursing Home", "source": "OpenGovernmentData"}}, {"type": "node", "id": 7206265619, "lat": 20.0691559, "lon": 86.3545105, "tags": {"addr:district": "Jagatsinghapur", "addr:full": "Big Bara Tree, Bramandihi", "addr:postcode": "754119", "addr:state": "Odisha", "addr:subdistrict": "Balikuda P.S.", "amenity": "hospital", "description": "Government Hospital", "name": "Government Hospital Brahmanadehi", "source": "OpenGovernmentData"}}, {"type": "node", "id": 7208345716, "lat": 20.0661943, "lon": 86.3117769, "tags": {"addr:district": "Jagatsinghapur", "addr:full": "Oskana Panchayat Office, Oskana", "addr:postcode": "754119", "addr:state": "Odisha", "addr:subdistrict": "Balikuda P.S.", "amenity": "hospital", "description": "Government Hospital", "name": "Government Hospital, Oskana", "source": "OpenGovernmentData"}}, {"type": "node", "id": 7208345731, "lat": 20.4078955, "lon": 86.279355, "tags": {"addr:district": "Kendrapara", "addr:full": "School, Madhusashan, Korua Sector", "addr:postcode": "754134", "addr:state": "Odisha", "addr:subdistrict": "Patkura", "amenity": "hospital", "description": "Government Hospital", "name": "Government Hospital, Madhusashan(N)", "source": "OpenGovernmentData"}}, {"type": "node", "id": 7208665409, "lat": 20.2151227, "lon": 86.2188403, "tags": {"addr:district": "Jagatsinghapur", "addr:full": "Kaduapada, Kaduapada", "addr:postcode": "754103", "addr:state": "Odisha", "addr:subdistrict": "Jagatsinghapur P.S.", "amenity": "hospital", "description": "Government Hospital", "name": "Government Hospital, Kaduapada", "source": "OpenGovernmentData"}}, {"type": "node", "id": 7211839967, "lat": 20.1812076, "lon": 86.1913691, "tags": {"addr:district": "Jagatsinghapur", "addr:full": "Salijanga", "addr:postcode": "754109", "addr:state": "Odisha", "addr:subdistrict": "Jagatsinghapur P.S.", "amenity": "hospital", "description": "Government Hospital", "name": "Government Hospital, Salajanga", "source": "OpenGovernmentData"}}, {"type": "node", "id": 7214446398, "lat": 20.3948474, "lon": 86.3217795, "tags": {"addr:district": "Kendrapara", "addr:full": "Gadadhar Pitha, Korua, Korua Sector", "addr:postcode": "754026", "addr:state": "Odisha", "addr:subdistrict": "Patkura", "amenity": "hospital", "description": "Government Hospital", "name": "Government Hospital, Korua(N)", "source": "OpenGovernmentData"}}, {"type": "node", "id": 7701256055, "lat": 20.3919581, "lon": 86.4391674, "tags": {"addr:district": "Kendrapara", "addr:full": "Pikarali", "addr:postcode": "754213", "addr:state": "Odhisa", "amenity": "hospital", "name": "Singh Hospital", "source": "Local Knowledge"}}, {"type": "node", "id": 7701256094, "lat": 20.3987104, "lon": 86.4869371, "tags": {"addr:district": "Kendrapara", "addr:full": "Athabatia", "addr:postcode": "754213", "addr:state": "Odhisa", "amenity": "clinic", "name": "Baba Kshetramohan Health Care", "source": "Local Knowledge"}}, {"type": "node", "id": 7701450078, "lat": 20.2550387, "lon": 86.1706322, "tags": {"addr:district": "Jagatsinghpur", "addr:full": "Jagatsinghpur", "addr:postcode": "754103", "addr:state": "Odhisa", "amenity": "hospital", "name": "Kanakpur Hospital", "source": "Local Knowledge"}}, {"type": "node", "id": 7701450082, "lat": 20.1203234, "lon": 86.1945828, "tags": {"addr:district": "Jagatsinghpur", "addr:full": "Tihuda", "addr:postcode": "754113", "addr:state": "Odhisa", "amenity": "hospital", "name": "Ashra Hospital", "source": "Local Knowledge"}}, {"type": "node", "id": 7701450083, "lat": 20.2548169, "lon": 86.1869069, "tags": {"addr:district": "Jagatsinghpur", "addr:full": "Jagatsinghpur", "addr:postcode": "754103", "addr:state": "Odhisa", "amenity": "clinic", "name": "Mamata Clinic", "source": "Local Knowledge"}}, {"type": "node", "id": 7701450098, "lat": 20.2956615, "lon": 86.0749212, "tags": {"addr:district": "Jagatsinghpur", "addr:full": "Purana", "addr:postcode": "754102", "addr:state": "Odhisa", "amenity": "hospital", "name": "Eye Hospital", "source": "Local Knowledge"}}, {"type": "node", "id": 7701450102, "lat": 20.2533052, "lon": 86.1751477, "tags": {"addr:district": "Jagatsinghpur", "addr:full": "Sana Bazar Road, Jagatsinghpur", "addr:postcode": "754103", "addr:state": "Odhisa", "amenity": "hospital", "name": "Khan Nursing Home", "source": "Local Knowledge"}}, {"type": "node", "id": 7701450104, "lat": 20.1206106, "lon": 86.1937332, "tags": {"addr:district": "Jagatsinghpur", "addr:full": "Tihuda", "addr:postcode": "754113", "addr:state": "Odhisa", "amenity": "clinic", "name": "Sure Cure Ayurveda", "source": "Local Knowledge"}}, {"type": "node", "id": 7701450111, "lat": 20.2065008, "lon": 86.1704057, "tags": {"addr:district": "Cuttack", "addr:full": "Tuumbaandeisahi", "addr:postcode": "754109", "addr:state": "Odhisa", "amenity": "hospital", "name": "Sriguru Health Centre", "source": "Local Knowledge"}}, {"type": "node", "id": 7701450113, "lat": 20.2540886, "lon": 86.1879201, "tags": {"addr:district": "Jagatsinghpur", "addr:full": "Jagatsinghpur", "addr:postcode": "754103", "addr:state": "Odhisa", "amenity": "clinic", "name": "Dr. Tarapada Nayak Homeopathic Clinic", "source": "Local Knowledge"}}, {"type": "node", "id": 7701450117, "lat": 20.2327324, "lon": 86.1624628, "tags": {"addr:district": "Jagatsinghpur", "addr:full": "Jasabantapur", "addr:postcode": "754103", "addr:state": "Odhisa", "amenity": "hospital", "name": "Jagatsinghpur Hospital", "source": "Local Knowledge"}}, {"type": "node", "id": 7701450118, "lat": 20.359944, "lon": 86.156996, "tags": {"addr:district": "Cuttack", "addr:full": "Raghunathpur, Jagatsinghapur, SH-12, Cuttack Paradeep Road, Tirtol", "addr:postcode": "754132", "addr:state": "Odhisa", "amenity": "hospital", "name": "Government Hospital", "source": "Local Knowledge"}}, {"type": "node", "id": 7701450122, "lat": 20.163531, "lon": 86.1952606, "tags": {"addr:district": "Jagatsinghpur", "addr:full": "Mundalo", "addr:postcode": "754109", "addr:state": "Odhisa", "amenity": "hospital", "name": "Mundalo Hospital", "source": "Local Knowledge"}}, {"type": "node", "id": 7701450126, "lat": 20.2595334, "lon": 86.1991994, "tags": {"addr:district": "Jagatsinghpur", "addr:full": "Jagatsinghpur - Paradip Road, Jagatsinghpur", "addr:postcode": "754103", "addr:state": "Odhisa", "amenity": "clinic", "name": "Dr. S.K Sarangi Homeopathic Clinic", "source": "Local Knowledge"}}, {"type": "node", "id": 7701450128, "lat": 20.2479174, "lon": 86.1904395, "tags": {"addr:district": "Jagatsinghpur", "addr:full": "Jagatsinghpur", "addr:postcode": "754103", "addr:state": "Odhisa", "amenity": "clinic", "name": "Surakhya Eye Care", "source": "Local Knowledge"}}, {"type": "node", "id": 7701450129, "lat": 20.2527074, "lon": 86.1795238, "tags": {"addr:district": "Jagatsinghpur", "addr:full": "Jagatsinghpur", "addr:postcode": "754103", "addr:state": "Odhisa", "amenity": "hospital", "name": "Sun Hospital", "source": "Local Knowledge"}}, {"type": "node", "id": 7701747913, "lat": 20.3933879, "lon": 86.2589864, "tags": {"addr:district": "Kendrapara", "addr:full": "Manijanga", "addr:postcode": "754134", "addr:state": "Odhisa", "amenity": "clinic", "name": "Divya Drishti Eye Care", "source": "Local Knowledge"}}, {"type": "node", "id": 7701747933, "lat": 20.1371102, "lon": 86.0633818, "tags": {"addr:district": "Cuttack", "addr:full": "Majhikhanda", "addr:postcode": "754004", "addr:state": "Odhisa", "amenity": "hospital", "name": "Government Hospital", "source": "Local Knowledge"}}, {"type": "node", "id": 8640405633, "lat": 20.2670556, "lon": 86.1198742, "tags": {"addr:city": "Jagatsinghpur", "addr:postcode": "75114", "amenity": "place_of_worship", "denomination": "hindu", "name": "Maa Dulla Devi Temple", "religion": "hindu"}}, {"type": "node", "id": 8640507723, "lat": 20.2582313, "lon": 86.1644292}, {"type": "node", "id": 8640507724, "lat": 20.2583023, "lon": 86.1645154}, {"type": "node", "id": 8640507725, "lat": 20.2582088, "lon": 86.1645921}, {"type": "node", "id": 8640507726, "lat": 20.2581378, "lon": 86.164502}, {"type": "node", "id": 9083853309, "lat": 20.395714, "lon": 86.4329099, "tags": {"addr:city": "kendrapara", "addr:postcode": "754213", "addr:street": "Kumadhi Village Road", "amenity": "place_of_worship", "name": "Maa Anantakumari Temple", "religion": "hindu"}}, {"type": "node", "id": 11586111228, "lat": 20.0589232, "lon": 86.0847902, "tags": {"addr:city": "Chharichhaka", "addr:district": "Puri", "amenity": "hospital", "healthcare": "hospital", "healthcare:speciality": "general_hospital", "name": "Charichhaka CHC", "operator": "Govt Hospital", "operator:type": "government"}}, {"type": "node", "id": 11586127556, "lat": 20.0597013, "lon": 86.0850004, "tags": {"addr:city": "Chharichhaka", "addr:district": "Puri", "amenity": "bank", "atm": "no", "branch": "Tulasipur", "brand": "State Bank of India", "brand:wikidata": "Q1340361", "name": "State Bank of India", "opening_hours": "Mo-Fr 09:00-18:00", "operator": "SBI", "short_name": "SBI"}}, {"type": "node", "id": 11586216330, "lat": 20.0318435, "lon": 86.1351164, "tags": {"addr:city": "Nayahat", "addr:district": "Puri", "amenity": "place_of_worship", "denomination": "hindu", "name": "Basudev Temple Nayahat", "religion": "hindu"}}, {"type": "node", "id": 11586231696, "lat": 20.0343293, "lon": 86.1354382, "tags": {"addr:city": "Nayahat", "addr:district": "Puri", "addr:postcode": "752107", "amenity": "place_of_worship", "denomination": "hindu", "name": "Aakhadalamani Temple", "religion": "hindu"}}, {"type": "node", "id": 11586483369, "lat": 20.0355858, "lon": 86.1274484, "tags": {"addr:city": "Jogeswarpur", "addr:district": "Puri", "addr:postcode": "752107", "amenity": "place_of_worship", "denomination": "hindu", "name": "Jogeswar Madir", "religion": "hindu"}}, {"type": "node", "id": 11586710638, "lat": 20.029246, "lon": 86.1425566, "tags": {"addr:city": "Nayahat", "addr:district": "Puri", "addr:postcode": "752107", "amenity": "school", "grades": "1-10", "name": "Nayahat High School", "operator": "Govt of Odisha", "operator:type": "government"}}, {"type": "node", "id": 11586729457, "lat": 20.0318696, "lon": 86.1368944, "tags": {"addr:city": "Nayahat", "addr:district": "Puri", "addr:postcode": "752107", "amenity": "school", "grades": "1-7", "name": "Singhapania Primary School", "operator": "Govt of Odisha", "operator:type": "government"}}, {"type": "node", "id": 11586763941, "lat": 20.02887, "lon": 86.1438624, "tags": {"amenity": "atm", "brand": "Axis Bank", "brand:wikidata": "Q2003549", "cash_in": "no", "currency:rupee": "yes", "name": "Axis Bank ATM", "operator": "Axis Bank", "operator:wikidata": "Q2003549"}}, {"type": "node", "id": 11586777389, "lat": 20.0306298, "lon": 86.138744, "tags": {"amenity": "atm", "brand": "HDFC Bank", "brand:wikidata": "Q631047", "currency:rupee": "yes", "name": "HDFC Bank ATM", "operator": "HDFC Bank", "operator:wikidata": "Q631047", "short_name": "HDFC"}}, {"type": "node", "id": 11586780923, "lat": 20.0549314, "lon": 86.1040485, "tags": {"addr:city": "Tulasipur", "addr:district": "Puri", "amenity": "school", "grades": "0-6", "name": "Venkateswar Public School", "operator": "Private", "operator:type": "private", "phone": "9040652025"}}, {"type": "node", "id": 11586782023, "lat": 20.0277765, "lon": 86.1448704, "tags": {"addr:city": "Nayahat", "addr:district": "Puri", "addr:postcode": "752107", "amenity": "hospital", "healthcare": "hospital", "name": "Nayahat CHC", "operator": "Govt of Odisha", "operator:type": "government"}}, {"type": "node", "id": 11586782421, "lat": 20.0280766, "lon": 86.145442, "tags": {"amenity": "atm", "brand": "Hitachi", "brand:wikidata": "Q53238", "cash_in": "no", "currency:rupee": "yes", "name": "Hitachi ATM", "operator": "Hitachi ATM"}}, {"type": "node", "id": 11586788810, "lat": 20.0499369, "lon": 86.1124971, "tags": {"addr:city": "Amaraswar", "addr:district": "Puri", "amenity": "place_of_worship", "denomination": "hindu", "name": "Amareswar Temple", "religion": "hindu"}}, {"type": "node", "id": 11586793807, "lat": 20.0351799, "lon": 86.1277689, "tags": {"amenity": "atm", "brand": "State Bank of India", "brand:wikidata": "Q1340361", "cash_in": "no", "currency:rupee": "yes", "name": "State Bank of India ATM", "operator": "State Bank of India", "operator:wikidata": "Q1340361", "short_name": "SBI"}}, {"type": "node", "id": 11586807851, "lat": 20.0352594, "lon": 86.1270941, "tags": {"amenity": "atm", "brand": "Axis Bank", "brand:wikidata": "Q2003549", "cash_in": "no", "currency:rupee": "yes", "name": "Axis Bank ATM", "operator": "Axis Bank", "operator:wikidata": "Q2003549"}}, {"type": "node", "id": 11586815853, "lat": 20.0508677, "lon": 86.1132957, "tags": {"addr:city": "Amaraswar", "addr:district": "Puri", "amenity": "school", "grades": "1-10", "name": "Amareswar High School", "operator": "Govt Of Odisha", "operator:type": "government"}}, {"type": "node", "id": 11591386855, "lat": 20.0600738, "lon": 86.0827086, "tags": {"amenity": "atm", "brand": "HDFC Bank", "brand:wikidata": "Q631047", "cash_in": "no", "currency:rupee": "yes", "operator": "HDFC Bank", "operator:wikidata": "Q631047", "short_name": "HDFC"}}, {"type": "node", "id": 11591414008, "lat": 20.0591262, "lon": 86.0877102, "tags": {"amenity": "atm", "cash_in": "no", "currency:rupee": "yes", "network": "Hitachi", "operator": "Hitachi ATM"}}, {"type": "node", "id": 11591461027, "lat": 20.062016, "lon": 86.0817765, "tags": {"amenity": "atm", "brand": "State Bank of India", "brand:wikidata": "Q1340361", "cash_in": "no", "currency:rupee": "yes", "name": "State Bank Of India ATM", "operator": "State Bank of India", "operator:wikidata": "Q1340361", "short_name": "SBI"}}, {"type": "node", "id": 11629499517, "lat": 20.0635456, "lon": 86.0766637, "tags": {"addr:city": "Charichhak", "addr:district": "Puri", "amenity": "college", "name": "Nigamananda Women's College", "operator": "Govt of Odisha", "operator:type": "government"}}, {"type": "node", "id": 11629516964, "lat": 20.0650032, "lon": 86.0701072, "tags": {"addr:city": "Charichhak", "addr:district": "Puri", "amenity": "place_of_worship", "denomination": "hindu", "name": "Bata Mahavir Temple", "religion": "hindu"}}, {"type": "node", "id": 11629533753, "lat": 20.0581959, "lon": 86.0956538, "tags": {"addr:city": "Tulasipur", "addr:district": "Puri", "amenity": "school", "grades": "1-5", "name": "Prachi Girls High School", "operator": "Govt of Odisha", "operator:type": "government"}}, {"type": "node", "id": 11629560058, "lat": 20.0573626, "lon": 86.0813473, "tags": {"addr:city": "Charichhak", "addr:district": "Puri", "amenity": "school", "name": "AB'S Oxford International School", "operator": "Private", "operator:type": "private"}}, {"type": "node", "id": 11629571517, "lat": 20.0585507, "lon": 86.0934712, "tags": {"addr:city": "Tulasipur", "addr:district": "Puri", "amenity": "school", "grades": "1-10", "name": "Tulasipur High School", "operator": "Govt of Odisha", "operator:type": "government"}}, {"type": "node", "id": 11629575436, "lat": 20.0445786, "lon": 86.1166359, "tags": {"addr:city": "Aludandapatna", "addr:district": "Puri", "amenity": "school", "grades": "1-5", "name": "Gada Amaraprashad Primary School", "operator": "Govt of Odisha", "operator:type": "government"}}, {"type": "node", "id": 11629590948, "lat": 20.0571412, "lon": 86.0986895, "tags": {"addr:city": "Tulasipur", "addr:district": "Puri", "amenity": "school", "grades": "1 to 5", "name": "Government Primary School Tulsipur", "operator": "Govt of Odisha", "operator:type": "government"}}, {"type": "node", "id": 11668427736, "lat": 20.0305011, "lon": 86.1387962, "tags": {"amenity": "bank", "atm": "yes", "branch": "Dhumala", "brand": "Canara Bank", "brand:en": "Canara Bank", "brand:hi": "\u0915\u0947\u0928\u0930\u093e \u092c\u0948\u0902\u0915", "brand:kn": "\u0c95\u0cc6\u0ca8\u0cb0\u0cbe \u0cac\u0ccd\u0caf\u0cbe\u0c82\u0c95\u0ccd", "brand:pa": "\u0a15\u0a47\u0a28\u0a30\u0a3e \u0a2c\u0a48\u0a02\u0a15", "brand:pnb": "\u06a9\u06cc\u0646\u0631\u0627 \u0628\u06cc\u0646\u06a9", "brand:ur": "\u06a9\u06cc\u0646\u0631\u0627 \u0628\u06cc\u0646\u06a9", "brand:wikidata": "Q2003777", "name": "Canara Bank", "name:en": "Canara Bank", "name:hi": "\u0915\u0947\u0928\u0930\u093e \u092c\u0948\u0902\u0915", "name:kn": "\u0c95\u0cc6\u0ca8\u0cb0\u0cbe \u0cac\u0ccd\u0caf\u0cbe\u0c82\u0c95\u0ccd", "name:or": "\u0b15\u0b3e\u0b28\u0b3e\u0b30\u0b3e \u0b2c\u0b4d\u0b5f\u0b3e\u0b19\u0b4d\u0b15", "name:pa": "\u0a15\u0a47\u0a28\u0a30\u0a3e \u0a2c\u0a48\u0a02\u0a15", "name:pnb": "\u06a9\u06cc\u0646\u0631\u0627 \u0628\u06cc\u0646\u06a9", "name:ur": "\u06a9\u06cc\u0646\u0631\u0627 \u0628\u06cc\u0646\u06a9", "opening_hours": "Mo-Fr 09:00-18:00"}}, {"type": "node", "id": 11668433124, "lat": 20.0304767, "lon": 86.1387974, "tags": {"amenity": "atm", "brand": "State Bank of India", "brand:wikidata": "Q1340361", "cash_in": "no", "currency:rupee": "yes", "operator": "State Bank of India", "operator:wikidata": "Q1340361", "short_name": "SBI"}}, {"type": "node", "id": 11668441133, "lat": 20.037115, "lon": 86.1273769, "tags": {"addr:city": "Jogeswarpur", "addr:district": "Puri", "addr:postcode": "752107", "amenity": "school", "grades": "1-4", "name": "Young Phoenix Public School", "operator": "Private", "operator:type": "private"}}, {"type": "node", "id": 11668441314, "lat": 20.0285172, "lon": 86.1448791, "tags": {"addr:city": "Nayahat", "addr:district": "Puri", "addr:postcode": "752107", "amenity": "bank", "atm": "no", "branch": "Jangalbori", "brand": "Bandhan Bank", "brand:wikidata": "Q19882235", "drive_through": "no", "name": "Bandhan Bank", "opening_hours": "Mo-Fr 09:00-18:00", "operator": "Private"}}, {"type": "node", "id": 11668444619, "lat": 20.0305304, "lon": 86.138825, "tags": {"amenity": "atm", "brand": "Canara Bank", "brand:en": "Canara Bank", "brand:hi": "\u0915\u0947\u0928\u0930\u093e \u092c\u0948\u0902\u0915", "brand:kn": "\u0c95\u0cc6\u0ca8\u0cb0\u0cbe \u0cac\u0ccd\u0caf\u0cbe\u0c82\u0c95\u0ccd", "brand:pa": "\u0a15\u0a47\u0a28\u0a30\u0a3e \u0a2c\u0a48\u0a02\u0a15", "brand:pnb": "\u06a9\u06cc\u0646\u0631\u0627 \u0628\u06cc\u0646\u06a9", "brand:ur": "\u06a9\u06cc\u0646\u0631\u0627 \u0628\u06cc\u0646\u06a9", "brand:wikidata": "Q2003777", "cash_in": "no", "currency:rupee": "yes", "drive_through": "no", "name:en": "Canara Bank", "name:hi": "\u0915\u0947\u0928\u0930\u093e \u092c\u0948\u0902\u0915", "name:kn": "\u0c95\u0cc6\u0ca8\u0cb0\u0cbe \u0cac\u0ccd\u0caf\u0cbe\u0c82\u0c95\u0ccd", "name:or": "\u0b15\u0b3e\u0b28\u0b3e\u0b30\u0b3e \u0b2c\u0b4d\u0b5f\u0b3e\u0b19\u0b4d\u0b15", "name:pa": "\u0a15\u0a47\u0a28\u0a30\u0a3e \u0a2c\u0a48\u0a02\u0a15", "name:pnb": "\u06a9\u06cc\u0646\u0631\u0627 \u0628\u06cc\u0646\u06a9", "name:ur": "\u06a9\u06cc\u0646\u0631\u0627 \u0628\u06cc\u0646\u06a9", "operator": "Canara Bank", "operator:wikidata": "Q2003777"}}, {"type": "node", "id": 11668447809, "lat": 20.0221641, "lon": 86.145256, "tags": {"addr:city": "Nayahat", "addr:district": "Puri", "addr:postcode": "752107", "amenity": "college", "name": "Nayahat College", "operator": "Govt of Odisha", "operator:type": "government"}}, {"type": "node", "id": 11668452785, "lat": 20.0298584, "lon": 86.1404359, "tags": {"addr:city": "Nayahat", "addr:district": "Puri", "addr:postcode": "752107", "amenity": "bank", "atm": "no", "branch": "Nayahat", "brand": "State Bank of India", "brand:wikidata": "Q1340361", "drive_through": "no", "name": "State Bank of India", "opening_hours": "Mo-Fr 09:00-18:00", "operator": "Government", "short_name": "SBI"}}, {"type": "node", "id": 11668457363, "lat": 20.0350731, "lon": 86.127992, "tags": {"addr:city": "Jogeswarpur", "addr:district": "Puri", "addr:postcode": "752107", "amenity": "school", "grades": "1 to 5", "name": "Jogeswarpur Primary School", "operator": "Govt of Odisha", "operator:type": "government"}}, {"type": "node", "id": 11668477629, "lat": 20.0331447, "lon": 86.1298912, "tags": {"addr:city": "Jogeswarpur", "addr:district": "Puri", "addr:postcode": "752107", "amenity": "school", "grades": "1-10", "name": "Saraswati Sisu Vidya Mandira", "operator": "Private", "operator:type": "private"}}, {"type": "node", "id": 11668609237, "lat": 20.0386259, "lon": 86.1205293, "tags": {"addr:city": "Aludandapatna", "addr:district": "Puri", "amenity": "place_of_worship", "denomination": "hindu", "name": "Sai Mandir", "religion": "hindu"}}, {"type": "node", "id": 11668625418, "lat": 20.0390129, "lon": 86.1209907, "tags": {"addr:city": "Aludandapatna", "addr:district": "Puri", "amenity": "place_of_worship", "denomination": "hindu", "name": "Anant Basudev Mandir", "religion": "hindu"}}, {"type": "node", "id": 11668631288, "lat": 20.0354857, "lon": 86.1269069, "tags": {"addr:city": "Jogeswarpur", "addr:district": "Puri", "amenity": "place_of_worship", "denomination": "hindu", "name": "Maa Tarini Mandir", "religion": "hindu"}}, {"type": "node", "id": 13601445305, "lat": 20.3076547, "lon": 86.3397075, "tags": {"amenity": "college", "education": "college", "name": "Adikabi Sarala Das College", "operator": "Odisha Govt", "operator:type": "government"}}, {"type": "node", "id": 13605715788, "lat": 20.3908767, "lon": 86.0587563, "tags": {"addr:district": "Cuttack", "amenity": "hospital", "healthcare": "hospital", "name": "Jiban Jyoti Hospital"}}, {"type": "way", "id": 932048104, "nodes": [8640507723, 8640507724, 8640507725, 8640507726, 8640507723], "tags": {"amenity": "place_of_worship", "building": "yes", "denomination": "hindu", "name": "Ganesh Temple", "religion": "hindu"}}]}