{"version": 0.6, "generator": "Overpass API 0.7.62.11 87bfad18", "osm3s": {"timestamp_osm_base": "2026-04-24T05:32:00Z", "copyright": "The data included in this document is from www.openstreetmap.org. The data is made available under ODbL."}, "elements": [{"type": "node", "id": 7085410065, "lat": 20.2895109, "lon": 83.1538439, "tags": {"addr:district": "Balangir", "addr:full": "At/Po-Titilagarh", "addr:postcode": "767033", "addr:state": "Odisha", "amenity": "hospital", "name": "SDH, Titilagarh", "source": "OpenGovernmentData"}}, {"type": "node", "id": 7087491351, "lat": 20.2877326, "lon": 83.1525892, "tags": {"addr:district": "Balangir", "addr:full": "Thikadarpada, Near Jalaram Lodge", "addr:postcode": "767033", "addr:state": "Odisha", "amenity": "clinic", "name": "Gayatri Nursing Home, Balangir", "source": "OpenGovernmentData"}}, {"type": "node", "id": 7206324654, "lat": 20.2344816, "lon": 82.7551107, "tags": {"addr:district": "Nuapada", "addr:full": "Duajhar", "addr:postcode": "766118", "addr:state": "Odisha", "addr:subdistrict": "Khariar", "amenity": "hospital", "description": "Government Hospital", "name": "Government Hospital, Duajhar", "source": "OpenGovernmentData"}}, {"type": "node", "id": 7208665444, "lat": 20.1363525, "lon": 82.9053037, "tags": {"addr:district": "Kalahandi", "addr:full": "Primery School ,Bordi", "addr:postcode": "766036", "addr:state": "Odisha", "addr:subdistrict": "Golamunda", "amenity": "hospital", "description": "Government Hospital", "name": "Government Hospital, Bordi", "source": "OpenGovernmentData"}}, {"type": "node", "id": 7210969085, "lat": 20.2870731, "lon": 83.1466877, "tags": {"addr:district": "Balangir", "addr:full": "Titilagarh", "addr:postcode": "767033", "addr:state": "Odisha", "amenity": "hospital", "name": "S.C.D. Eye Hospital", "source": "OpenGovernmentData"}}, {"type": "node", "id": 7212072667, "lat": 20.0773763, "lon": 83.1043477, "tags": {"addr:district": "Kalahandi", "addr:full": "S.B.I Bank", "addr:postcode": "766011", "addr:state": "Odisha", "addr:subdistrict": "Sadar", "amenity": "hospital", "description": "Government Hospital", "name": "Government Hospital, Karlapada", "source": "OpenGovernmentData"}}, {"type": "node", "id": 7218270829, "lat": 20.0869338, "lon": 82.8654045, "tags": {"addr:district": "Kalahandi", "addr:full": "Panchayat Ucha Bidyalaya", "addr:postcode": "766036", "addr:state": "Odisha", "addr:subdistrict": "Golamunda", "amenity": "hospital", "description": "Government Hospital", "name": "Government Hospital, Chapuria", "source": "OpenGovernmentData"}}, {"type": "node", "id": 7218292800, "lat": 20.3463584, "lon": 82.8400294, "tags": {"addr:district": "Balangir", "addr:full": "Near High School Bhalumunda, Bhalumunda, Bangomunda", "addr:postcode": "767040", "addr:state": "Odisha", "addr:subdistrict": "Bangomunda", "amenity": "hospital", "name": "Government Hospital, Bhalumunda", "source": "OpenGovernmentData"}}, {"type": "node", "id": 7218562582, "lat": 20.0611706, "lon": 82.7927126, "tags": {"addr:district": "Kalahandi", "addr:full": "Infront Of Sarbamangala College, Golamunda", "addr:postcode": "766029", "addr:state": "Odisha", "addr:subdistrict": "Golamunda", "amenity": "hospital", "name": "Government Hospital, Golamunda", "source": "OpenGovernmentData"}}, {"type": "node", "id": 7710220421, "lat": 20.2942692, "lon": 82.7597067, "tags": {"addr:district": "Nuapada", "addr:full": "Bijepur", "addr:postcode": "766107", "addr:state": "Odhisa", "amenity": "clinic", "name": "Aarogyam Physiotherapy Clinic", "source": "Local Knowledge"}}, {"type": "node", "id": 7710220443, "lat": 20.1051931, "lon": 83.1764311, "tags": {"addr:district": "Kalahandi", "addr:full": "Utkela", "addr:postcode": "766011", "addr:state": "Odhisa", "amenity": "hospital", "name": "Homeopathic Hospital", "source": "Local Knowledge"}}, {"type": "node", "id": 7710220496, "lat": 20.293083, "lon": 82.7602282, "tags": {"addr:district": "Nuapada", "addr:full": "Bellaguntha-Baragaon Road, Khariar", "addr:postcode": "766107", "addr:state": "Odhisa", "amenity": "clinic", "name": "Electro Homeopathy", "source": "Local Knowledge"}}, {"type": "node", "id": 7710220504, "lat": 20.2988115, "lon": 82.7548525, "tags": {"addr:district": "Nuapada", "addr:full": "Bijepur", "addr:postcode": "766107", "addr:state": "Odhisa", "amenity": "clinic", "name": "Karmee's Patanjali Chikitsalaya", "source": "Local Knowledge"}}, {"type": "node", "id": 7710375516, "lat": 20.22407, "lon": 82.9378522, "tags": {"addr:district": "Balangir", "addr:full": "Madabhati Pada Road, Telasarai", "addr:postcode": "767035", "addr:state": "Odhisa", "amenity": "hospital", "name": "Cattle Hospital", "source": "Local Knowledge"}}, {"type": "node", "id": 7710375526, "lat": 20.2877421, "lon": 83.1531771, "tags": {"addr:district": "Balangir", "addr:full": "Thikadar Para Road, Thikadar Para, Titilagarh", "addr:postcode": "767033", "addr:state": "Odhisa", "amenity": "clinic", "name": "Kejriwal Multi Speciality Clinic", "source": "Local Knowledge"}}, {"type": "node", "id": 7710375527, "lat": 20.3014693, "lon": 83.1524117, "tags": {"addr:district": "Balangir", "addr:full": "Saragiguda", "addr:postcode": "767033", "addr:state": "Odhisa", "amenity": "clinic", "name": "Kabiraj Ajit Kumar Sahu Chikitsalaya", "source": "Local Knowledge"}}, {"type": "node", "id": 7710375528, "lat": 20.2907469, "lon": 83.1514352, "tags": {"addr:district": "Balangir", "addr:full": "Titilagarh Main Road, Jagannath Para, Titilagarh", "addr:postcode": "767033", "addr:state": "Odhisa", "amenity": "clinic", "name": "Dr. H. Lals Clinic", "source": "Local Knowledge"}}, {"type": "node", "id": 7710375541, "lat": 20.2879345, "lon": 83.1487822, "tags": {"addr:district": "Balangir", "addr:full": "Siba Mandir Road, Bhagban Sahu Colony, Hatpada Para, Titilagarh", "addr:postcode": "767033", "addr:state": "Odhisa", "amenity": "clinic", "name": "Dr. Anita Hota Clinic", "source": "Local Knowledge"}}, {"type": "node", "id": 7710375575, "lat": 20.2900965, "lon": 83.1534259, "tags": {"addr:district": "Balangir", "addr:full": "Sagar Road, Jain Para, Titilagarh", "addr:postcode": "767033", "addr:state": "Odhisa", "amenity": "clinic", "name": "Jyoti Patho Clinic", "source": "Local Knowledge"}}, {"type": "node", "id": 7710375577, "lat": 20.2844568, "lon": 83.1677559, "tags": {"addr:district": "Balangir", "addr:postcode": "767033", "addr:state": "Odhisa", "amenity": "hospital", "name": "TB Hospital", "source": "Local Knowledge"}}, {"type": "node", "id": 7710375586, "lat": 20.2766437, "lon": 82.9660546, "tags": {"addr:district": "Balangir", "addr:full": "Bakagura", "addr:postcode": "767035", "addr:state": "Odhisa", "amenity": "hospital", "name": "Dr. Sahu Hospital", "source": "Local Knowledge"}}, {"type": "node", "id": 7710375593, "lat": 20.2895737, "lon": 83.1523991, "tags": {"addr:district": "Balangir", "addr:full": "Jain Para, Titilagarh", "addr:postcode": "767033", "addr:state": "Odhisa", "amenity": "clinic", "name": "Lifeline Clinic", "source": "Local Knowledge"}}, {"type": "node", "id": 7710375601, "lat": 20.290055, "lon": 83.1534606, "tags": {"addr:district": "Balangir", "addr:full": "Sagar Road, Jain Para, Titilagarh", "addr:postcode": "767033", "addr:state": "Odhisa", "amenity": "clinic", "name": "Dr. P. K Nayak Clinic", "source": "Local Knowledge"}}, {"type": "node", "id": 8023099704, "lat": 20.3147258, "lon": 82.7607024}, {"type": "node", "id": 8023099705, "lat": 20.3146629, "lon": 82.760677}, {"type": "node", "id": 8023099706, "lat": 20.3147006, "lon": 82.760571}, {"type": "node", "id": 8023099707, "lat": 20.3147635, "lon": 82.7605965}, {"type": "way", "id": 860813114, "nodes": [8023099707, 8023099706, 8023099705, 8023099704, 8023099707], "tags": {"amenity": "place_of_worship", "building": "yes", "religion": "hindu", "source": "MaxarPremium"}}]}