{"version": 0.6, "generator": "Overpass API 0.7.62.11 87bfad18", "osm3s": {"timestamp_osm_base": "2026-04-24T05:36:14Z", "copyright": "The data included in this document is from www.openstreetmap.org. The data is made available under ODbL."}, "elements": [{"type": "node", "id": 1051411201, "lat": 20.5749173, "lon": 86.7084487, "tags": {"amenity": "restaurant", "name": "Hotel Swists"}}, {"type": "node", "id": 1051411510, "lat": 20.5725705, "lon": 86.7074395, "tags": {"amenity": "restaurant", "name": "Dhaba"}}, {"type": "node", "id": 2434925640, "lat": 20.6137096, "lon": 86.5970849, "tags": {"addr:city": "Patrapur", "addr:postcode": "754215", "amenity": "school", "name": "SKC High School, Patrapur", "note": "Class VIII to X .", "operator": "Govt. Of Odisha"}}, {"type": "node", "id": 2434938047, "lat": 20.608673, "lon": 86.5857467, "tags": {"addr:city": "Patrapur", "addr:postcode": "754215", "amenity": "school", "name": "Patrapur ME School", "operator": "Govt. Of Odisha"}}, {"type": "node", "id": 2434943323, "lat": 20.6047577, "lon": 86.587161, "tags": {"addr:city": "Patrapur", "addr:postcode": "754215", "amenity": "place_of_worship", "denomination": "sufi", "name": "Patrapur Dargah", "religion": "muslim"}}, {"type": "node", "id": 3105084036, "lat": 20.7561866, "lon": 86.7221538}, {"type": "node", "id": 3105084037, "lat": 20.7561506, "lon": 86.7222038}, {"type": "node", "id": 3105084038, "lat": 20.756219, "lon": 86.7222519}, {"type": "node", "id": 3105084039, "lat": 20.7562377, "lon": 86.7222202}, {"type": "node", "id": 3105084040, "lat": 20.7562513, "lon": 86.7222038}, {"type": "node", "id": 7079057913, "lat": 20.4961016, "lon": 86.6202067, "tags": {"addr:district": "Puri", "addr:full": "Madhuban Lane, Matiapara", "addr:postcode": "752002", "addr:state": "Odisha", "amenity": "hospital", "name": "Sri Krishna Health Care and Reproductive Research Centre", "source": "OpenGovernmentData"}}, {"type": "node", "id": 7206324618, "lat": 20.6634347, "lon": 86.7586201, "tags": {"addr:district": "Kendrapara", "addr:full": "Near Katana Market And Pond, Katana, Ayatan Sector", "addr:postcode": "754220", "addr:state": "Odisha", "addr:subdistrict": "Rajkanika", "amenity": "hospital", "description": "Government Hospital", "name": "Government Hospital, Katana", "source": "OpenGovernmentData"}}, {"type": "node", "id": 7207956938, "lat": 20.7627879, "lon": 86.9415535, "tags": {"addr:district": "Kendrapara", "addr:full": "Near Talchua Ps, Talchua, Dangamal", "addr:postcode": "754246", "addr:state": "Odisha", "addr:subdistrict": "Rajnagar", "amenity": "hospital", "description": "Government Hospital", "name": "Government Hospital, Talchua", "source": "OpenGovernmentData"}}, {"type": "node", "id": 7208764213, "lat": 20.8130226, "lon": 86.6523638, "tags": {"addr:district": "Bhadrak", "addr:full": "Near Akhandalamani Mandir, Aradi, Bhadrak To Aradi Road", "addr:postcode": "756138", "addr:state": "Odisha", "addr:subdistrict": "Dhusuri P.S.", "amenity": "hospital", "description": "Government Hospital", "name": "Government Hospital, Aradi(N)", "source": "OpenGovernmentData"}}, {"type": "node", "id": 7218270866, "lat": 20.6471737, "lon": 86.5579855, "tags": {"addr:district": "Kendrapara", "addr:full": "In Front Of Panchayat Office, Sanmanga, Batipada Sector", "addr:postcode": "754218", "addr:state": "Odisha", "addr:subdistrict": "Aali", "amenity": "hospital", "description": "Government Hospital", "name": "Government Hospital, Sanmanga", "source": "OpenGovernmentData"}}, {"type": "node", "id": 7242457291, "lat": 20.5801997, "lon": 86.55415, "tags": {"addr:district": "Jajapur", "addr:full": "Near Gurukul School, Hardidashpur", "addr:postcode": "755024", "addr:state": "Odisha", "addr:subdistrict": "Dharmasala P.S. (P)", "amenity": "hospital", "name": "Rama Devi Govt. Hospital", "source": "OpenGovernmentData"}}, {"type": "node", "id": 7701256056, "lat": 20.5808202, "lon": 86.5628459, "tags": {"addr:district": "Kendrapara", "addr:full": "Pattamundai", "addr:postcode": "754215", "addr:state": "Odhisa", "amenity": "hospital", "name": "Sai Hospital", "source": "Local Knowledge"}}, {"type": "node", "id": 7701256068, "lat": 20.7770078, "lon": 86.7442092, "tags": {"addr:district": "Bhadrak", "addr:full": "Chandbali", "addr:postcode": "756133", "addr:state": "Odhisa", "amenity": "hospital", "name": "Vinayak Nursing Home Private Limited", "source": "Local Knowledge"}}, {"type": "node", "id": 7701256070, "lat": 20.737048, "lon": 86.661731, "tags": {"addr:district": "Kendrapara", "addr:full": "Satagharia", "addr:postcode": "754227", "addr:state": "Odhisa", "amenity": "clinic", "name": "Lifecare Medicine", "source": "Local Knowledge"}}, {"type": "node", "id": 7701256089, "lat": 20.7370215, "lon": 86.7048789, "tags": {"addr:district": "Kendrapara", "addr:full": "Kantapada, Kendrapara, Rajkanika", "addr:postcode": "754220", "addr:state": "Odhisa", "amenity": "clinic", "name": "M.B Nursing Home", "source": "Local Knowledge"}}, {"type": "node", "id": 7701256099, "lat": 20.7427165, "lon": 86.7053438, "tags": {"addr:district": "Kendrapara", "addr:full": "Sebasahi, Rajkanika", "addr:postcode": "754220", "addr:state": "Odhisa", "amenity": "hospital", "name": "Annapurna Seba Hospital", "source": "Local Knowledge"}}, {"type": "node", "id": 7701256106, "lat": 20.7354875, "lon": 86.6967879, "tags": {"addr:district": "Kendrapara", "addr:full": "Gokarneshwar", "addr:postcode": "754220", "addr:state": "Odhisa", "amenity": "hospital", "name": "Sai Hospital", "source": "Local Knowledge"}}, {"type": "node", "id": 7701256112, "lat": 20.7367016, "lon": 86.6650198, "tags": {"addr:district": "Kendrapara", "addr:full": "Olaver", "addr:postcode": "754227", "addr:state": "Odhisa", "amenity": "hospital", "name": "Olaver Hospital", "source": "Local Knowledge"}}, {"type": "node", "id": 7701256114, "lat": 20.5799749, "lon": 86.5544621, "tags": {"addr:district": "Kendrapara", "addr:full": "Beltal, Pattamundai", "addr:postcode": "754215", "addr:state": "Odhisa", "amenity": "clinic", "name": "Barsa Nursing Home", "source": "Local Knowledge"}}, {"type": "node", "id": 7701256118, "lat": 20.5796374, "lon": 86.55949, "tags": {"addr:district": "Kendrapara", "addr:full": "Cuttack - Kendrapada Road, Pattamundai", "addr:postcode": "754215", "addr:state": "Odhisa", "amenity": "hospital", "name": "Kar Danta Chikitsalaya & Sairam Medicine Store", "source": "Local Knowledge"}}, {"type": "node", "id": 7701256120, "lat": 20.7357498, "lon": 86.6939851, "tags": {"addr:district": "Kendrapara", "addr:full": "Rajkanika", "addr:postcode": "754220", "addr:state": "Odhisa", "amenity": "hospital", "name": "Government Hospital", "source": "Local Knowledge"}}, {"type": "way", "id": 305822623, "nodes": [3105084036, 3105084037, 3105084038, 3105084039, 3105084040, 3105084036], "tags": {"addr:city": "Rajkanika", "addr:housenumber": "Ostia", "addr:postcode": "754220", "addr:street": "Ctc_Chandabali SH", "amenity": "place_of_worship", "building": "yes", "name": "Hanuman Temple", "religion": "hindu"}}]}