{"version": 0.6, "generator": "Overpass API 0.7.62.11 87bfad18", "osm3s": {"timestamp_osm_base": "2026-04-24T05:35:09Z", "copyright": "The data included in this document is from www.openstreetmap.org. The data is made available under ODbL."}, "elements": [{"type": "node", "id": 1051794195, "lat": 19.8069349, "lon": 85.821671, "tags": {"amenity": "atm", "name": "Central Bank"}}, {"type": "node", "id": 1051794464, "lat": 19.7949439, "lon": 85.8237921, "tags": {"amenity": "atm", "name": "IDBI"}}, {"type": "node", "id": 1051794530, "lat": 19.8018709, "lon": 85.8260451}, {"type": "node", "id": 1051794596, "lat": 19.8013113, "lon": 85.827709}, {"type": "node", "id": 1051794981, "lat": 19.8007375, "lon": 85.8270164}, {"type": "node", "id": 1051795165, "lat": 19.7954426, "lon": 85.8188693, "tags": {"amenity": "atm", "name": "SBI"}}, {"type": "node", "id": 1051795955, "lat": 19.8129287, "lon": 85.8306484, "tags": {"amenity": "atm", "name": "SBI"}}, {"type": "node", "id": 1051796268, "lat": 19.8142651, "lon": 85.8327587, "tags": {"amenity": "bank", "atm": "yes", "brand": "Axis Bank", "brand:wikidata": "Q2003549", "name": "Axis Bank"}}, {"type": "node", "id": 1051796276, "lat": 19.8076325, "lon": 85.8379077, "tags": {"amenity": "restaurant"}}, {"type": "node", "id": 1051796516, "lat": 19.8147662, "lon": 85.8391133, "tags": {"amenity": "bus_station", "bus": "yes", "name": "Puri Bus Station", "public_transport": "station"}}, {"type": "node", "id": 1051796615, "lat": 19.8157012, "lon": 85.8379388, "tags": {"amenity": "bus_station", "name": "Puri Local Bus Stand"}}, {"type": "node", "id": 1051796646, "lat": 19.8086613, "lon": 85.8226432, "tags": {"amenity": "bank", "brand": "Indian Bank", "brand:wikidata": "Q2003789", "brand:wikipedia": "en:Indian Bank", "name": "Indian Bank", "name:en": "Indian Bank", "website": "https://www.indianbank.in/"}}, {"type": "node", "id": 1051796898, "lat": 19.8025439, "lon": 85.82667}, {"type": "node", "id": 1051796950, "lat": 19.8099937, "lon": 85.8244292, "tags": {"amenity": "atm", "brand": "State Bank of India", "brand:wikidata": "Q1340361", "name": "State Bank of India", "operator": "State Bank of India", "operator:wikidata": "Q1340361"}}, {"type": "node", "id": 1051822811, "lat": 19.7939425, "lon": 85.8202923, "tags": {"amenity": "atm", "name": "UCO"}}, {"type": "node", "id": 1051830138, "lat": 19.8025806, "lon": 85.8271855, "tags": {"amenity": "place_of_worship", "name": "Catholic Centre", "religion": "christian"}}, {"type": "node", "id": 1273021202, "lat": 19.8045471, "lon": 85.8176162}, {"type": "node", "id": 1273021221, "lat": 19.8050181, "lon": 85.8176469}, {"type": "node", "id": 1273021256, "lat": 19.804998, "lon": 85.818538}, {"type": "node", "id": 1273021263, "lat": 19.8045119, "lon": 85.8185234}, {"type": "node", "id": 2377753835, "lat": 19.8958036, "lon": 85.8075183}, {"type": "node", "id": 2377753838, "lat": 19.8957243, "lon": 85.8085982}, {"type": "node", "id": 2377753840, "lat": 19.8953398, "lon": 85.8085732}, {"type": "node", "id": 2377753842, "lat": 19.8954234, "lon": 85.8074379}, {"type": "node", "id": 3098266483, "lat": 19.7984753, "lon": 85.6654354, "tags": {"addr:city": "Brahmagiri", "addr:postcode": "752011", "amenity": "place_of_worship", "name": "Alaranth Temple", "religion": "hindu"}}, {"type": "node", "id": 3098377749, "lat": 19.7992511, "lon": 85.666893, "tags": {"addr:city": "Brahmagiri", "addr:postcode": "752011", "amenity": "bank", "atm": "yes", "brand:wikidata": "Q1340361", "brand:wikipedia": "en:State Bank of India", "name": "State Bank Of India", "phone": "+916752-235213", "short_name": "SBI", "source": "http://www.customerhelplinenumber.com/sbi-bank-branch-brahmagiri-puri-orissa.html"}}, {"type": "node", "id": 3306257801, "lat": 19.9480262, "lon": 85.8088287}, {"type": "node", "id": 3306257802, "lat": 19.9480562, "lon": 85.80903}, {"type": "node", "id": 3306257803, "lat": 19.9480747, "lon": 85.8088483}, {"type": "node", "id": 3306257804, "lat": 19.9480909, "lon": 85.8085341}, {"type": "node", "id": 3306257807, "lat": 19.9484508, "lon": 85.8091503}, {"type": "node", "id": 3306257810, "lat": 19.9485616, "lon": 85.8086397}, {"type": "node", "id": 3306584950, "lat": 19.8157903, "lon": 85.8391563}, {"type": "node", "id": 3306584951, "lat": 19.8160397, "lon": 85.840558}, {"type": "node", "id": 3306584952, "lat": 19.8171006, "lon": 85.8389362}, {"type": "node", "id": 3306584953, "lat": 19.8173246, "lon": 85.8402615}, {"type": "node", "id": 4183385009, "lat": 19.805331, "lon": 85.8432892, "tags": {"amenity": "school"}}, {"type": "node", "id": 4423642991, "lat": 19.8019311, "lon": 85.8316884, "tags": {"amenity": "restaurant", "name": "WildGrass"}}, {"type": "node", "id": 4540142357, "lat": 19.797359, "lon": 85.812873, "tags": {"amenity": "place_of_worship", "denomination": "Gaudia vaishnavism", "name": "Tota Gopinatha Temple", "name:ru": "\u0425\u0440\u0430\u043c \u0422\u043e\u0442\u0430-\u0413\u043e\u043f\u0438\u043d\u0430\u0442\u0445\u0430", "religion": "hindu"}}, {"type": "node", "id": 4601224189, "lat": 19.7936691, "lon": 85.8195925, "tags": {"amenity": "restaurant", "name": "Ruchira", "name:en": "Ruchira"}}, {"type": "node", "id": 4648502894, "lat": 19.7955038, "lon": 85.8238434, "tags": {"amenity": "restaurant", "name": "Ruchira annex", "name:en": "Ruchira annex"}}, {"type": "node", "id": 4648502895, "lat": 19.795287, "lon": 85.8238672, "tags": {"amenity": "restaurant", "name:en": "Bhojohori Manna"}}, {"type": "node", "id": 5370354152, "lat": 19.7867211, "lon": 85.7956841}, {"type": "node", "id": 5370354153, "lat": 19.7867405, "lon": 85.7958735}, {"type": "node", "id": 5370354154, "lat": 19.7864442, "lon": 85.7959077}, {"type": "node", "id": 5370354155, "lat": 19.7864248, "lon": 85.7957183}, {"type": "node", "id": 6149805585, "lat": 19.7933758, "lon": 85.8153435, "tags": {"addr:city": "Puri", "addr:state": "Odisha", "addr:street": "Marine Drive Road", "alt_name": "Bhakti Kutir", "amenity": "place_of_worship", "denomination": "gaudiya_vaishnavism", "name": "ISKCON TEMPLE PURI", "opening_hours": "Mo-Su 04:00-2:00", "religion": "hindu", "website": "https://www.iskconpuri.com/"}}, {"type": "node", "id": 6160648527, "lat": 19.8947436, "lon": 85.8015607, "tags": {"amenity": "school", "name": "Bhargabi High School"}}, {"type": "node", "id": 6160666385, "lat": 19.8958153, "lon": 85.7957102, "tags": {"addr:city": "Biranarasinghpur", "addr:housenumber": "Biranarasinghpur", "addr:postcode": "752012", "addr:street": "New Jagannath Sadak", "amenity": "place_of_worship", "name": "Nilakantha Temple", "religion": "hindu"}}, {"type": "node", "id": 6160667422, "lat": 19.8924125, "lon": 85.8072847, "tags": {"addr:city": "Dolagobindapur", "addr:postcode": "752012", "amenity": "place_of_worship", "name": "Jagulai Temple", "religion": "hindu"}}, {"type": "node", "id": 6160684066, "lat": 19.8954907, "lon": 85.8066136, "tags": {"addr:city": "Chandanpur", "addr:postcode": "752012", "addr:street": "New Jagannath Sadak", "amenity": "bank", "atm": "yes", "brand": "UCO Bank", "brand:wikidata": "Q2005310", "brand:wikipedia": "en:UCO Bank", "drive_through": "yes", "email": "birapr@ucobank.co.in", "name": "UCO Bank", "opening_hours": "Mo-Su 10:00-16:00", "phone": "06752230199"}}, {"type": "node", "id": 6160707305, "lat": 19.8932102, "lon": 85.8136825, "tags": {"addr:city": "Damodarpur", "addr:postcode": "752012", "addr:street": "Bhubaneswar Puri Highway", "air_conditioning": "yes", "amenity": "bank", "atm": "yes", "brand": "State Bank of India", "brand:wikidata": "Q1340361", "brand:wikipedia": "en:State Bank of India", "email": "sbi.10937@sbi.co.in", "name": "State Bank of India", "opening_hours": "Mo-Su 10:00-16:00", "phone": "06752274993", "short_name": "SBI"}}, {"type": "node", "id": 6160728216, "lat": 19.8879258, "lon": 85.8182042, "tags": {"addr:city": "Chandanpur", "addr:postcode": "752012", "addr:street": "Bhubaneswar Puri Highway", "amenity": "restaurant", "capacity": "50", "diet:vegetarian": "only", "name": "Padmalaya Veg Hotel", "opening_hours": "Mo-Su 07:00-22:00", "smoking": "no"}}, {"type": "node", "id": 6161219642, "lat": 19.7967142, "lon": 85.8258767, "tags": {"addr:city": "Puri", "addr:housenumber": "SHOP NO. 1, GROUND FLOOR, PLOT NO. 223", "addr:street": "Marine Drive Road", "amenity": "fast_food", "brand": "Domino's", "brand:ks": "\u0688\u0648\u0645\u06cc\u0646\u0648\u0632", "brand:pa": "\u0a21\u0a4b\u0a2e\u0a40\u0a28\u0a4b\u0a1c\u0a3c", "brand:ur": "\u0688\u0648\u0645\u06cc\u0646\u0648\u0632", "brand:wikidata": "Q839466", "brand:wikipedia": "en:Domino's Pizza", "cuisine": "pizza", "delivery": "yes", "name": "Domino's", "name:ks": "\u0688\u0648\u0645\u06cc\u0646\u0648\u0632", "name:pa": "\u0a21\u0a4b\u0a2e\u0a40\u0a28\u0a4b\u0a1c\u0a3c", "name:ur": "\u0688\u0648\u0645\u06cc\u0646\u0648\u0632", "phone": "18602100000", "smoking": "no"}}, {"type": "node", "id": 6161242618, "lat": 19.8089627, "lon": 85.8219403}, {"type": "node", "id": 6161242619, "lat": 19.8086681, "lon": 85.8223989}, {"type": "node", "id": 6161242620, "lat": 19.8084939, "lon": 85.8225753}, {"type": "node", "id": 6161242621, "lat": 19.8084234, "lon": 85.8225091}, {"type": "node", "id": 6161242622, "lat": 19.8085147, "lon": 85.8223151}, {"type": "node", "id": 6161242623, "lat": 19.8086308, "lon": 85.8220991}, {"type": "node", "id": 6161242624, "lat": 19.8088341, "lon": 85.8218301}, {"type": "node", "id": 6161245685, "lat": 19.8046669, "lon": 85.8311904}, {"type": "node", "id": 6161245686, "lat": 19.8030659, "lon": 85.8295453}, {"type": "node", "id": 6161245687, "lat": 19.803784, "lon": 85.8280076}, {"type": "node", "id": 6161245688, "lat": 19.8045499, "lon": 85.8287991}, {"type": "node", "id": 6161245689, "lat": 19.8057945, "lon": 85.8299071}, {"type": "node", "id": 6161245690, "lat": 19.8052307, "lon": 85.830529}, {"type": "node", "id": 6161259695, "lat": 19.8127102, "lon": 85.825993, "tags": {"amenity": "place_of_worship", "check_date": "2026-02-14", "name": "Shani Temple", "religion": "hindu"}}, {"type": "node", "id": 6161266153, "lat": 19.8401133, "lon": 85.836835, "tags": {"amenity": "place_of_worship", "name": "Batamangala Temple", "name:or": "\u0b2c\u0b3e\u0b1f\u0b2e\u0b19\u0b4d\u0b17\u0b33\u0b3e \u0b2e\u0b28\u0b4d\u0b26\u0b3f\u0b30", "religion": "hindu"}}, {"type": "node", "id": 6161309913, "lat": 19.8503637, "lon": 85.8364431, "tags": {"amenity": "atm", "currency:INR": "yes", "operator": "PNB ATM"}}, {"type": "node", "id": 6422336885, "lat": 19.8028303, "lon": 85.8461614, "tags": {"amenity": "place_of_worship", "name": "Sri Gopinath Gaudiya Math"}}, {"type": "node", "id": 6424526885, "lat": 19.8095749, "lon": 85.8240412, "tags": {"amenity": "place_of_worship", "name": "Jagannath Ballav Mutt (Srikshetra Heritage site)"}}, {"type": "node", "id": 6424527985, "lat": 19.8083931, "lon": 85.82211, "tags": {"amenity": "place_of_worship", "name": "Shree Chaitanya Gaudiya Math", "name:en": "Shree Chaitanya Gaudiya Math", "name:ru": "\u0428\u0440\u0438 \u0427\u0430\u0439\u0442\u0430\u043d\u044c\u044f \u0413\u0430\u0443\u0434\u0438\u044f \u041c\u0430\u0442\u0445", "religion": "hindu"}}, {"type": "node", "id": 6429432486, "lat": 19.8568307, "lon": 85.9450452, "tags": {"amenity": "restaurant", "name": "Greenland", "name:hi": "Hotel Greenland Family Restaurant"}}, {"type": "node", "id": 6429438185, "lat": 19.8316966, "lon": 85.9420268, "tags": {"amenity": "place_of_worship", "name": "Shree Shree Baleswar Temple"}}, {"type": "node", "id": 6670184085, "lat": 19.7933187, "lon": 85.8186734, "tags": {"amenity": "bus_station", "name": "Bus to Puri station"}}, {"type": "node", "id": 6761287316, "lat": 19.8103127, "lon": 85.8150163, "tags": {"amenity": "place_of_worship", "name": "Markandeya Temple", "religion": "hindu"}}, {"type": "node", "id": 6761287317, "lat": 19.8030777, "lon": 85.8018655, "tags": {"amenity": "place_of_worship", "name": "Lokanatha Temple", "religion": "hindu"}}, {"type": "node", "id": 6984104351, "lat": 19.8654536, "lon": 85.8309191}, {"type": "node", "id": 6984104352, "lat": 19.8668915, "lon": 85.8296049}, {"type": "node", "id": 6984104353, "lat": 19.8675373, "lon": 85.8288324}, {"type": "node", "id": 6984104354, "lat": 19.8666292, "lon": 85.8278668}, {"type": "node", "id": 6984104355, "lat": 19.8656655, "lon": 85.8289075}, {"type": "node", "id": 6984104356, "lat": 19.8653073, "lon": 85.8291596}, {"type": "node", "id": 6984104357, "lat": 19.8646212, "lon": 85.829798}, {"type": "node", "id": 6984104358, "lat": 19.8645203, "lon": 85.8300126}, {"type": "node", "id": 6984104359, "lat": 19.8653225, "lon": 85.8307797}, {"type": "node", "id": 7051182992, "lat": 19.8017351, "lon": 85.8325204, "tags": {"addr:district": "Puri", "addr:full": "VIP Road", "addr:postcode": "752001", "addr:state": "Odisha", "amenity": "hospital", "name": "Swapu Care", "source": "OpenGovernmentData"}}, {"type": "node", "id": 7053747524, "lat": 19.8146852, "lon": 85.8403464, "tags": {"addr:district": "Puri", "addr:full": "Chaitanya Vihar, Bus Stand", "addr:postcode": "752001", "addr:state": "Odisha", "amenity": "hospital", "name": "Sanjeevani Hospital (Puri)", "source": "OpenGovernmentData"}}, {"type": "node", "id": 7078980391, "lat": 19.8142712, "lon": 85.8299503, "tags": {"addr:district": "Puri", "addr:full": "Baliput,Puri", "addr:postcode": "752001", "addr:state": "Odisha", "amenity": "hospital", "name": "District Headquarter Hospital ,Puri", "source": "OpenGovernmentData"}}, {"type": "node", "id": 7079200342, "lat": 19.8112056, "lon": 85.8352343, "tags": {"addr:district": "Puri", "addr:full": "Puri", "addr:postcode": "752001", "addr:state": "Odisha", "addr:subdistrict": "Puri (M) P.S.", "amenity": "hospital", "description": "Civil Hospital/General Hospital", "name": "I.D.H, Puri", "source": "OpenGovernmentData"}}, {"type": "node", "id": 7079268126, "lat": 19.8144032, "lon": 85.8295966, "tags": {"addr:district": "Puri", "addr:full": "Government Hospital", "addr:postcode": "752001", "addr:state": "Odisha", "amenity": "hospital", "name": "Government Hospital, Puri", "source": "OpenGovernmentData"}}, {"type": "node", "id": 7079268127, "lat": 19.8050434, "lon": 85.8359869, "tags": {"addr:district": "Puri", "addr:full": "Railway Station, Ward-25, Station Road,Puri", "addr:postcode": "752001", "addr:state": "Odisha", "amenity": "hospital", "name": "K.D.M.M , Puri", "source": "OpenGovernmentData"}}, {"type": "node", "id": 7079268134, "lat": 19.8076253, "lon": 85.8330401, "tags": {"addr:district": "Puri", "addr:full": "V I P Road", "addr:postcode": "752001", "addr:state": "Odisha", "amenity": "clinic", "name": "Nilachal Nursing Home", "source": "OpenGovernmentData"}}, {"type": "node", "id": 7087554830, "lat": 19.9885317, "lon": 86.012633, "tags": {"addr:district": "Puri", "addr:full": "At/Po Kuspur P.S. Gop", "addr:postcode": "752110", "addr:state": "Odisha", "amenity": "clinic", "name": "Seva Nursing Home, Puri", "source": "OpenGovernmentData"}}, {"type": "node", "id": 7210926185, "lat": 19.8003005, "lon": 85.8185743, "tags": {"addr:district": "Puri", "addr:full": "Barahi Lane, Bali Sahi, Puri", "addr:postcode": "752001", "addr:state": "Odisha", "amenity": "clinic", "healthcare": "clinic", "name": "UPHC, Swargadwar", "source": "OpenGovernmentData"}}, {"type": "node", "id": 7210929853, "lat": 19.8111378, "lon": 85.8304216, "tags": {"addr:district": "Puri", "addr:full": "Heragohiri Sahi Road, Near Nilakantheswari Temple, Puri", "addr:postcode": "752001", "addr:state": "Odisha", "amenity": "clinic", "name": "Arogyadham Clinic", "source": "OpenGovernmentData"}}, {"type": "node", "id": 7211707604, "lat": 19.9296622, "lon": 85.70785, "tags": {"addr:district": "Puri", "addr:full": "Gabakunda", "addr:postcode": "752014", "addr:state": "Odisha", "addr:subdistrict": "Satyabadi", "amenity": "hospital", "description": "Government Hospital", "name": "Government Hospital, Sukal", "source": "OpenGovernmentData"}}, {"type": "node", "id": 7212078646, "lat": 19.8878382, "lon": 85.8501385, "tags": {"addr:district": "Puri", "addr:full": "Chalisibatia", "addr:postcode": "752012", "addr:state": "Odisha", "addr:subdistrict": "Puri (M) P.S.", "amenity": "hospital", "description": "Government Hospital", "name": "Government Hospital, Chalisbatia", "source": "OpenGovernmentData"}}, {"type": "node", "id": 7212185450, "lat": 19.8003863, "lon": 85.8331548, "tags": {"addr:district": "Puri", "addr:full": "City Road, Subash Bose Chhak, Kdmm", "addr:postcode": "752001", "addr:state": "Odisha", "addr:subdistrict": "Puri (M) P.S.", "amenity": "hospital", "name": "Chandan Hazuri Paediatric Hospital", "source": "OpenGovernmentData"}}, {"type": "node", "id": 7227802953, "lat": 19.9846936, "lon": 85.7239533, "tags": {"addr:district": "Puri", "addr:full": "Indipur, Indipur", "addr:postcode": "752015", "addr:state": "Odisha", "addr:subdistrict": "Delanga", "amenity": "hospital", "healthcare": "centre", "name": "Government Hospital, Indipur", "source": "OpenGovernmentData"}}, {"type": "node", "id": 7701568083, "lat": 19.810904, "lon": 85.825702, "tags": {"addr:district": "Puri", "addr:full": "Puri", "addr:postcode": "752001", "addr:state": "Odhisa", "amenity": "hospital", "name": "Patanjali Hospital", "source": "Local Knowledge"}}, {"type": "node", "id": 7701568088, "lat": 19.8113176, "lon": 85.8256128, "tags": {"addr:district": "Puri", "addr:full": "Subhadra", "addr:postcode": "752001", "addr:state": "Odhisa", "amenity": "clinic", "name": "Sharada Nursing Home", "source": "Local Knowledge"}}, {"type": "node", "id": 7701568091, "lat": 19.8124944, "lon": 85.834597, "tags": {"addr:district": "Puri", "addr:full": "Red Cross Road, Balikuda Sahi", "addr:postcode": "752002", "addr:state": "Odhisa", "amenity": "hospital", "name": "Kalara Hospital", "source": "Local Knowledge"}}, {"type": "node", "id": 7701568096, "lat": 19.811861, "lon": 85.8347967, "tags": {"addr:district": "Puri", "addr:full": "Red Cross Road, Chari Chaka", "addr:postcode": "752002", "addr:state": "Odhisa", "amenity": "clinic", "name": "Girish Chandra Behra Clinic", "source": "Local Knowledge"}}, {"type": "node", "id": 7701568106, "lat": 19.8120735, "lon": 85.8312458, "tags": {"addr:district": "Puri", "addr:postcode": "752002", "addr:state": "Odhisa", "amenity": "clinic", "name": "Maa Harijana Seka Clinic", "source": "Local Knowledge"}}, {"type": "node", "id": 7701568110, "lat": 19.8016875, "lon": 85.8241345, "tags": {"addr:district": "Puri", "addr:full": "Dolamandap Sahi", "addr:postcode": "752002", "addr:state": "Odhisa", "amenity": "hospital", "name": "E-24 Hospital", "source": "Local Knowledge"}}, {"type": "node", "id": 7701568112, "lat": 19.8247793, "lon": 85.8527662, "tags": {"addr:district": "Puri", "addr:full": "Balighat", "addr:postcode": "752002", "addr:state": "Odhisa", "amenity": "hospital", "healthcare": "hospital", "name": "Ramamani Multi Speciality Hospital", "source": "Local Knowledge"}}, {"type": "node", "id": 7701568113, "lat": 19.8158082, "lon": 85.7416477, "tags": {"addr:district": "Puri", "addr:full": "Odisha", "addr:postcode": "752002", "addr:state": "Odhisa", "amenity": "hospital", "name": "Samuka Hospital", "source": "Local Knowledge"}}, {"type": "node", "id": 7701568115, "lat": 19.8315158, "lon": 85.862003, "tags": {"addr:district": "Puri", "addr:full": "Puri", "addr:postcode": "752002", "addr:state": "Odhisa", "amenity": "hospital", "name": "Mental Hospital", "source": "Local Knowledge"}}, {"type": "node", "id": 7701568120, "lat": 19.8171894, "lon": 85.8405834, "tags": {"addr:district": "Puri", "addr:full": "Sarbodaya Nagar", "addr:postcode": "752002", "addr:state": "Odhisa", "amenity": "clinic", "name": "Gupta Clinic", "source": "Local Knowledge"}}, {"type": "node", "id": 7701568124, "lat": 19.8205404, "lon": 85.8390402, "tags": {"addr:district": "Puri", "addr:full": "Makubana", "addr:postcode": "752002", "addr:state": "Odhisa", "amenity": "clinic", "name": "Sri Krishna Clinic", "source": "Local Knowledge"}}, {"type": "node", "id": 7701568130, "lat": 19.8131671, "lon": 85.8319784, "tags": {"addr:district": "Puri", "addr:full": "Puri", "addr:postcode": "752002", "addr:state": "Odhisa", "amenity": "clinic", "name": "Sarala Pantholab", "source": "Local Knowledge"}}, {"type": "node", "id": 7701568135, "lat": 19.8161689, "lon": 85.8413723, "tags": {"addr:district": "Puri", "addr:full": "Sarbodaya Nagar", "addr:postcode": "752002", "addr:state": "Odhisa", "amenity": "clinic", "name": "Sahoo Clinic", "source": "Local Knowledge"}}, {"type": "node", "id": 7701568144, "lat": 19.8587345, "lon": 85.9558946, "tags": {"addr:district": "Puri", "addr:full": "Puri", "addr:postcode": "752002", "addr:state": "Odhisa", "amenity": "clinic", "name": "Healthcare Centre", "source": "Local Knowledge"}}, {"type": "node", "id": 7701568148, "lat": 19.8176939, "lon": 85.8405863, "tags": {"addr:district": "Puri", "addr:full": "Gundicha Vihar, Sarbodaya Nagar", "addr:postcode": "752002", "addr:state": "Odhisa", "amenity": "hospital", "name": "Sri Krishna Hospital", "source": "Local Knowledge"}}, {"type": "node", "id": 7701568159, "lat": 19.9615858, "lon": 86.0351581, "tags": {"addr:district": "Puri", "addr:full": "Nagapur Nayahat Road, Erabanga", "addr:postcode": "752116", "addr:state": "Odhisa", "amenity": "clinic", "name": "Kanakalata Seva Sadan Ayush Clinic", "source": "Local Knowledge"}}, {"type": "node", "id": 7701568161, "lat": 19.8121172, "lon": 85.8307868, "tags": {"addr:district": "Puri", "addr:full": "Balagandi", "addr:postcode": "752001", "addr:state": "Odhisa", "amenity": "hospital", "name": "Apollo Hospital", "source": "Local Knowledge"}}, {"type": "node", "id": 7701568163, "lat": 19.812752, "lon": 85.842205, "tags": {"addr:district": "Puri", "addr:full": "Sarbodaya Nagar", "addr:postcode": "752002", "addr:state": "Odhisa", "amenity": "clinic", "name": "Nandalaya Arogya Ashrama Clinic and Surgic Centre", "source": "Local Knowledge"}}, {"type": "node", "id": 7701568166, "lat": 19.817323, "lon": 85.840601, "tags": {"addr:district": "Puri", "addr:full": "Harihar Market", "addr:postcode": "752002", "addr:state": "Odhisa", "amenity": "clinic", "name": "Sai Saudamini Nursing Home", "source": "Local Knowledge"}}, {"type": "node", "id": 7701568168, "lat": 19.823713, "lon": 85.828647, "tags": {"addr:district": "Puri", "addr:full": "Gopinathpur New Colony Road, Gopinathpur", "addr:postcode": "752002", "addr:state": "Odhisa", "amenity": "hospital", "healthcare": "hospital", "name": "Keya Fertility and Test Tube Baby centre", "source": "Local Knowledge"}}, {"type": "node", "id": 7701568170, "lat": 19.811252, "lon": 85.829929, "tags": {"addr:district": "Puri", "addr:full": "Balagandi", "addr:postcode": "752001", "addr:state": "Odhisa", "amenity": "hospital", "name": "Om Sai Eye Care Hospitals", "source": "Local Knowledge"}}, {"type": "node", "id": 8073270471, "lat": 19.7958082, "lon": 85.8261628}, {"type": "node", "id": 8073270472, "lat": 19.7962614, "lon": 85.8261263}, {"type": "node", "id": 8073270473, "lat": 19.7967169, "lon": 85.82727}, {"type": "node", "id": 8073270474, "lat": 19.7967896, "lon": 85.8278129}, {"type": "node", "id": 8073270475, "lat": 19.7968966, "lon": 85.8282292}, {"type": "node", "id": 8073270476, "lat": 19.7962344, "lon": 85.8284674}, {"type": "node", "id": 8073270477, "lat": 19.7960043, "lon": 85.8275147}, {"type": "node", "id": 8073270478, "lat": 19.7957943, "lon": 85.8268452}, {"type": "node", "id": 8073270479, "lat": 19.7956429, "lon": 85.826416}, {"type": "node", "id": 8073270480, "lat": 19.7955621, "lon": 85.82618}, {"type": "node", "id": 10725468705, "lat": 19.8012729, "lon": 85.8374899, "tags": {"amenity": "restaurant", "name": "Vbrance The Food Court"}}, {"type": "node", "id": 11162549440, "lat": 19.7937544, "lon": 85.8183334, "tags": {"addr:city": "Puri", "addr:district": "Puri", "addr:street": "Satsana Road", "amenity": "restaurant", "cuisine": "indian", "name": "Ganguram Sweets", "name:bn": "\u0997\u09be\u0999\u09cd\u0997\u09c1\u09b0\u09be\u09ae \u09b8\u09c1\u0987\u099f\u09b8", "phone": "+91 06752 2297688"}}, {"type": "node", "id": 11846011758, "lat": 19.8953252, "lon": 85.8065064, "tags": {"amenity": "bank", "brand": "AU Small Finance Bank", "brand:wikidata": "Q48729722", "name": "AU Small Finance Bank"}}, {"type": "node", "id": 11846037734, "lat": 19.8958183, "lon": 85.8041809, "tags": {"amenity": "fast_food", "name": "Shankara Fast Food"}}, {"type": "node", "id": 11861498324, "lat": 19.8968026, "lon": 85.8089251, "tags": {"addr:city": "Birapratappur", "addr:district": "Puri", "addr:postcode": "752012", "addr:street": "Bhubaneswar Puri Highway", "amenity": "school", "name": "Girl's High School", "operator": "Education Department", "operator:type": "government"}}, {"type": "node", "id": 11861506898, "lat": 19.8763411, "lon": 85.8146738, "tags": {"addr:city": "Chandanpur", "addr:district": "Puri", "addr:postcode": "752012", "amenity": "restaurant", "cuisine": "regional;indian;dessert", "diet:local": "yes", "diet:vegetarian": "yes", "name": "Krishna Hotel", "opening_hours": "Mo-Su 08:00-22:00"}}, {"type": "node", "id": 12181493982, "lat": 19.8027969, "lon": 85.8425177, "tags": {"amenity": "restaurant", "cuisine": "pizza", "name": "Honey Bee Bakery & Pizza"}}, {"type": "node", "id": 12181502769, "lat": 19.8036363, "lon": 85.844563, "tags": {"amenity": "place_of_worship", "name": "Bedi Hanuman Temple"}}, {"type": "node", "id": 12636295874, "lat": 19.7978216, "lon": 85.8323627}, {"type": "node", "id": 12636295875, "lat": 19.7976966, "lon": 85.8323762}, {"type": "node", "id": 12636295876, "lat": 19.7976903, "lon": 85.8324942}, {"type": "node", "id": 12636295877, "lat": 19.7978216, "lon": 85.8324781}, {"type": "node", "id": 12636295920, "lat": 19.7885965, "lon": 85.8028752}, {"type": "node", "id": 12636295921, "lat": 19.7886132, "lon": 85.8029645}, {"type": "node", "id": 12636295922, "lat": 19.7885108, "lon": 85.8029858}, {"type": "node", "id": 12636295923, "lat": 19.7884916, "lon": 85.8028876}, {"type": "node", "id": 12652170001, "lat": 19.7968883, "lon": 85.8134305, "tags": {"amenity": "place_of_worship", "denomination": "vaishavism", "name": "Chataka parvata", "religion": "hindu"}}, {"type": "node", "id": 12652177501, "lat": 19.8018423, "lon": 85.8183772, "tags": {"amenity": "place_of_worship", "name": "Shveta-Ganga", "religion": "hindu"}}, {"type": "node", "id": 12652187101, "lat": 19.8003686, "lon": 85.8188706, "tags": {"amenity": "place_of_worship", "name": "Radha-Kantha math, Sri Gambhira", "religion": "hindu"}}, {"type": "node", "id": 12652188602, "lat": 19.7999117, "lon": 85.8202443, "tags": {"amenity": "place_of_worship", "denomination": "gaudiya_vaishnava", "name": "Siddha-bakula", "name:ru": "\u0421\u0438\u0434\u0434\u0445\u0430 \u0411\u0430\u043a\u0443\u043b", "religion": "hindu"}}, {"type": "node", "id": 12652254201, "lat": 19.8136758, "lon": 85.82508, "tags": {"amenity": "place_of_worship", "name": "Narendra-sarovara", "religion": "hindu"}}, {"type": "node", "id": 12652274401, "lat": 19.8206871, "lon": 85.8425173, "tags": {"amenity": "place_of_worship", "name": "Indradyumna-sarovara"}}, {"type": "node", "id": 12652316901, "lat": 19.8194348, "lon": 85.8320436, "tags": {"amenity": "place_of_worship", "name": "Atharanala bridge", "religion": "hindu"}}, {"type": "node", "id": 12752066472, "lat": 19.7874435, "lon": 85.7977569}, {"type": "node", "id": 12752066473, "lat": 19.7869615, "lon": 85.7978097}, {"type": "node", "id": 12752066474, "lat": 19.7869978, "lon": 85.7979764}, {"type": "node", "id": 12752066475, "lat": 19.7874607, "lon": 85.7978951}, {"type": "node", "id": 12855309185, "lat": 19.8294541, "lon": 85.904086}, {"type": "node", "id": 12855309186, "lat": 19.82948, "lon": 85.9041676}, {"type": "node", "id": 12855309187, "lat": 19.8293534, "lon": 85.9042128}, {"type": "node", "id": 12855309188, "lat": 19.8293223, "lon": 85.9041246}, {"type": "node", "id": 12951335009, "lat": 19.803596, "lon": 85.8048156}, {"type": "node", "id": 12951335010, "lat": 19.8034955, "lon": 85.804839}, {"type": "node", "id": 12951335011, "lat": 19.8033099, "lon": 85.8053681}, {"type": "node", "id": 12951335012, "lat": 19.8036487, "lon": 85.8054893}, {"type": "node", "id": 12951335013, "lat": 19.8036137, "lon": 85.805637}, {"type": "node", "id": 12951335014, "lat": 19.803892, "lon": 85.8057259}, {"type": "node", "id": 12951335015, "lat": 19.8041268, "lon": 85.8053947}, {"type": "node", "id": 12951335016, "lat": 19.8041761, "lon": 85.8052083}, {"type": "node", "id": 13245732854, "lat": 19.7968873, "lon": 85.8133588}, {"type": "node", "id": 13245732855, "lat": 19.796822, "lon": 85.8134566}, {"type": "node", "id": 13245732856, "lat": 19.7969184, "lon": 85.8135433}, {"type": "node", "id": 13245732857, "lat": 19.7969882, "lon": 85.8134373}, {"type": "node", "id": 13245738891, "lat": 19.7967319, "lon": 85.8135903}, {"type": "node", "id": 13245738892, "lat": 19.7965493, "lon": 85.8138048}, {"type": "node", "id": 13245738893, "lat": 19.7964562, "lon": 85.8136925}, {"type": "node", "id": 13245738894, "lat": 19.796655, "lon": 85.8134867}, {"type": "node", "id": 13245845340, "lat": 19.7957979, "lon": 85.8137138, "tags": {"amenity": "fast_food", "cuisine": "indian", "diet:vegan": "yes", "diet:vegetarian": "yes", "name": "Radha mani roti supplier", "opening_hours": "\"everning. from 4 PM maybe\""}}, {"type": "node", "id": 13245915108, "lat": 19.7957679, "lon": 85.8136691, "tags": {"amenity": "pharmacy", "healthcare": "pharmacy", "shop": "chemist"}}, {"type": "node", "id": 13245942464, "lat": 19.7940252, "lon": 85.8119392, "tags": {"amenity": "restaurant", "cuisine": "indian;bengali;chinese", "diet:vegetarian": "yes", "name": "Rohini restaurant", "opening_hours": "Mo-Su 09:00-21:00"}}, {"type": "node", "id": 13250268600, "lat": 19.7966066, "lon": 85.8136243, "tags": {"amenity": "place_of_worship", "denotation": "vaishavism", "name": "Sri Sri Gaura Gadadhara Vinode Madhava Jiu", "religion": "hindu"}}, {"type": "node", "id": 13250512662, "lat": 19.7951529, "lon": 85.8157565, "tags": {"amenity": "place_of_worship", "denomination": "vaishnavism", "name": "Sri Saraswata Gaudia asan", "religion": "hindu"}}, {"type": "node", "id": 13255868111, "lat": 19.8009702, "lon": 85.818341, "tags": {"amenity": "place_of_worship", "denomination": "vaishnavism", "name": "Sarvabhauma Bhatacharya's House", "religion": "hindu"}}, {"type": "node", "id": 13258161757, "lat": 19.8049098, "lon": 85.8177274, "tags": {"amenity": "place_of_worship", "name": "Shree Jagannath Mandir Puri", "religion": "hindu"}}, {"type": "node", "id": 13258161758, "lat": 19.8045123, "lon": 85.8174046, "tags": {"amenity": "place_of_worship", "name": "Shei Vimla Devi Shaktipeeth Mandir"}}, {"type": "node", "id": 13258161759, "lat": 19.8050873, "lon": 85.8174384, "tags": {"amenity": "place_of_worship", "name": "Shei Laxmi Mata Mandir", "religion": "hindu"}}, {"type": "node", "id": 13258161760, "lat": 19.8046898, "lon": 85.8190341, "tags": {"amenity": "place_of_worship", "name": "Sinh Dwar", "religion": "hindu"}}, {"type": "node", "id": 13258161761, "lat": 19.8047155, "lon": 85.8189932, "tags": {"amenity": "place_of_worship", "name": "Patit Paavan Jagannath", "religion": "hindu"}}, {"type": "node", "id": 13258161762, "lat": 19.8039264, "lon": 85.8179786, "tags": {"amenity": "place_of_worship", "name": "Ashwa Dwar", "religion": "hindu"}}, {"type": "node", "id": 13258161763, "lat": 19.8048903, "lon": 85.81712, "tags": {"amenity": "place_of_worship", "name": "Gaj Dwar", "religion": "hindu"}}, {"type": "node", "id": 13258161764, "lat": 19.805621, "lon": 85.8183018, "tags": {"amenity": "place_of_worship", "name": "Bagh Dwar", "religion": "hindu"}}, {"type": "node", "id": 13258161765, "lat": 19.8054172, "lon": 85.8175917, "tags": {"amenity": "place_of_worship", "name": "Koili Vaikuntha", "religion": "hindu"}}, {"type": "node", "id": 13258161766, "lat": 19.8052123, "lon": 85.8189536, "tags": {"amenity": "place_of_worship", "name": "Snan Vedi", "religion": "hindu"}}, {"type": "node", "id": 13258161767, "lat": 19.8045987, "lon": 85.8193774, "tags": {"amenity": "place_of_worship", "name": "Arun Stambh", "religion": "hindu"}}, {"type": "node", "id": 13258161768, "lat": 19.8038222, "lon": 85.8181275, "tags": {"amenity": "place_of_worship", "name": "Shei Bedi (Kanpata) Hanuman Mandir", "religion": "hindu"}}, {"type": "node", "id": 13258161769, "lat": 19.8166026, "lon": 85.8396513, "tags": {"amenity": "place_of_worship", "name": "Shri Gundicha Mandir", "religion": "hindu"}}, {"type": "node", "id": 13258161770, "lat": 19.8166731, "lon": 85.8400463, "tags": {"amenity": "place_of_worship", "name": "Adap Mandap", "religion": "hindu"}}, {"type": "node", "id": 13258161771, "lat": 19.81683, "lon": 85.8390197, "tags": {"amenity": "place_of_worship", "name": "Sinh Dwar Gundicha Mandir", "religion": "hindu"}}, {"type": "node", "id": 13258161772, "lat": 19.8175294, "lon": 85.8401411, "tags": {"amenity": "place_of_worship", "name": "Shei Narsimha Mandir Puri", "religion": "hindu"}}, {"type": "node", "id": 13521027367, "lat": 19.8065012, "lon": 85.8141711, "tags": {"amenity": "place_of_worship", "name": "Bali math", "religion": "hindu"}}, {"type": "node", "id": 13525383854, "lat": 19.7927858, "lon": 85.8148618, "tags": {"amenity": "place_of_worship", "name": "Sri Nilacala Gaudiya matj", "religion": "hindu"}}, {"type": "node", "id": 13564315939, "lat": 19.8082298, "lon": 85.8269524}, {"type": "node", "id": 13564315940, "lat": 19.808256, "lon": 85.8269076}, {"type": "node", "id": 13564315941, "lat": 19.8083138, "lon": 85.8269472}, {"type": "node", "id": 13564315942, "lat": 19.8082857, "lon": 85.8269872}, {"type": "node", "id": 13564395955, "lat": 19.8089245, "lon": 85.8232208}, {"type": "node", "id": 13564395956, "lat": 19.808854, "lon": 85.8232883}, {"type": "node", "id": 13564395957, "lat": 19.8088967, "lon": 85.8233411}, {"type": "node", "id": 13564395958, "lat": 19.8089646, "lon": 85.8232753}, {"type": "node", "id": 13564432471, "lat": 19.8084095, "lon": 85.8220768, "tags": {"amenity": "place_of_worship", "denomination": "gaudiya_vaishnavism", "name": "Birthplace of  Srila Bhaktisiddhanta Sarasvati Thakura", "name:ru": "\u041c\u0435\u0441\u0442\u043e \u0440\u043e\u0436\u0434\u0435\u043d\u0438\u044f \u0428\u0440\u0438\u043b\u044b \u0411\u0445\u0430\u043a\u0442\u0438\u0441\u0438\u0434\u0434\u0445\u0430\u043d\u0442\u044b \u0421\u0430\u0440\u0430\u0441\u0432\u0430\u0442\u0438", "religion": "hindu"}}, {"type": "node", "id": 13564433388, "lat": 19.809896, "lon": 85.8251396}, {"type": "node", "id": 13564433389, "lat": 19.8099476, "lon": 85.8252035}, {"type": "node", "id": 13564433390, "lat": 19.8097584, "lon": 85.8253898}, {"type": "node", "id": 13564433391, "lat": 19.8097128, "lon": 85.8253244}, {"type": "node", "id": 13564433392, "lat": 19.809911, "lon": 85.8251689, "tags": {"addr:city": "Puri", "addr:state": "Odisha", "addr:street": "Grand Road", "amenity": "atm", "brand": "Canara Bank", "brand:en": "Canara Bank", "brand:hi": "\u0915\u0947\u0928\u0930\u093e \u092c\u0948\u0902\u0915", "brand:kn": "\u0c95\u0cc6\u0ca8\u0cb0\u0cbe \u0cac\u0ccd\u0caf\u0cbe\u0c82\u0c95\u0ccd", "brand:pa": "\u0a15\u0a47\u0a28\u0a30\u0a3e \u0a2c\u0a48\u0a02\u0a15", "brand:pnb": "\u06a9\u06cc\u0646\u0631\u0627 \u0628\u06cc\u0646\u06a9", "brand:ur": "\u06a9\u06cc\u0646\u0631\u0627 \u0628\u06cc\u0646\u06a9", "brand:wikidata": "Q2003777", "indoor": "yes", "name": "Canara Bank ATM", "network": "Canara Bank", "opening_hours": "24/7", "operator": "Canara Bank", "operator:wikidata": "Q2003777"}}, {"type": "node", "id": 13564470807, "lat": 19.8079317, "lon": 85.8219976, "tags": {"addr:city": "Puri", "addr:place": "Marichikote", "addr:state": "Odisha", "amenity": "atm", "brand": "HDFC Bank", "brand:wikidata": "Q631047", "name": "HDFC Bank ATM", "network": "HDFC Bank", "opening_hours": "24/7", "operator": "HDFC Bank", "operator:wikidata": "Q631047"}}, {"type": "node", "id": 13564557077, "lat": 19.7934723, "lon": 85.8154607}, {"type": "node", "id": 13564557078, "lat": 19.7932812, "lon": 85.81537}, {"type": "node", "id": 13564557079, "lat": 19.7933486, "lon": 85.8151918}, {"type": "node", "id": 13564557080, "lat": 19.7934574, "lon": 85.8152359}, {"type": "node", "id": 13564557081, "lat": 19.7934426, "lon": 85.8153009}, {"type": "node", "id": 13564557082, "lat": 19.7935225, "lon": 85.815335}, {"type": "node", "id": 13564557083, "lat": 19.7933803, "lon": 85.8152456, "tags": {"amenity": "restaurant"}}, {"type": "node", "id": 13564857159, "lat": 19.7940897, "lon": 85.8117092, "tags": {"alcohol": "no", "amenity": "place_of_worship", "denomination": "gaudiya_vaishnava", "diet:vegetarian": "yes", "guest_house": "ashram", "name": "Sri Srirup Siddhanti Gaudiya Sevashram", "name:en": "Sri Srirup Siddhanti Gaudiya Sevashram", "name:hi": "\u0936\u094d\u0930\u0940 \u0936\u094d\u0930\u0940\u0930\u0942\u092a \u0938\u093f\u0926\u094d\u0927\u093e\u0928\u094d\u0924\u0940 \u0917\u094c\u0921\u0940\u092f \u0938\u0947\u0935\u093e\u0936\u094d\u0930\u092e", "operator": "Sri Srirup Siddhanti Gaudiya Sevashram", "phone": "+91 8895060301;+91 9827750098", "religion": "hindu", "smoking": "no", "tourism": "guest_house", "website": "https://bvmlu.org/SBSSM/"}}, {"type": "node", "id": 13564984209, "lat": 19.8083046, "lon": 85.8221207}, {"type": "node", "id": 13564984210, "lat": 19.8081984, "lon": 85.8222336}, {"type": "node", "id": 13564984211, "lat": 19.8082932, "lon": 85.8223364}, {"type": "node", "id": 13564984212, "lat": 19.8083919, "lon": 85.8222255}, {"type": "node", "id": 13564984213, "lat": 19.8084238, "lon": 85.8222136}, {"type": "node", "id": 13564984214, "lat": 19.8083229, "lon": 85.8221077}, {"type": "node", "id": 13564984215, "lat": 19.8084128, "lon": 85.8219915}, {"type": "node", "id": 13564984216, "lat": 19.8085208, "lon": 85.8221091}, {"type": "node", "id": 13565037627, "lat": 19.7981743, "lon": 85.8132169, "tags": {"amenity": "place_of_worship", "name": "Nrisinha Temple", "religion": "hindu"}}, {"type": "node", "id": 13565040700, "lat": 19.8029141, "lon": 85.8145835, "tags": {"amenity": "place_of_worship", "denomination": "gaudiya_vaishnava", "name": "Naga Math", "religion": "hindu"}}, {"type": "node", "id": 13565050036, "lat": 19.7983727, "lon": 85.8134796, "tags": {"amenity": "place_of_worship", "name": "Shiva Temple", "religion": "hindu"}}, {"type": "node", "id": 13565871142, "lat": 19.7955029, "lon": 85.650461}, {"type": "node", "id": 13565871143, "lat": 19.7955184, "lon": 85.6505806}, {"type": "node", "id": 13565871144, "lat": 19.7952857, "lon": 85.6506043}, {"type": "node", "id": 13565871145, "lat": 19.7952808, "lon": 85.6504909}, {"type": "node", "id": 13565871158, "lat": 19.7953885, "lon": 85.6503202, "tags": {"amenity": "place_of_worship", "denomination": "gaudiya_vaishnava", "name": "Room of Sri Bhaktisiddhanta Saraswati", "religion": "hindu"}}, {"type": "node", "id": 13605228836, "lat": 19.7915516, "lon": 85.6501296, "tags": {"amenity": "place_of_worship", "denomination": "gaudiya_vaishnava", "name": "Bhaktisiddhanta's bhava sthali", "religion": "hindu"}}, {"type": "node", "id": 13605228837, "lat": 19.7949268, "lon": 85.6501249}, {"type": "node", "id": 13605228838, "lat": 19.7948177, "lon": 85.6501151}, {"type": "node", "id": 13605228839, "lat": 19.7948051, "lon": 85.650336}, {"type": "node", "id": 13605228840, "lat": 19.7949291, "lon": 85.650336}, {"type": "node", "id": 13605228841, "lat": 19.7948729, "lon": 85.6502543, "tags": {"amenity": "place_of_worship", "denomination": "vaishnava", "name": "Alarnath Temple", "religion": "hindu"}}, {"type": "node", "id": 13605291746, "lat": 19.7990499, "lon": 85.8204364, "tags": {"amenity": "place_of_worship", "denomination": "gaudiya_vaishnava", "name": "Kunja Math", "religion": "hindu"}}, {"type": "node", "id": 13605291747, "lat": 19.7968555, "lon": 85.8186723, "tags": {"amenity": "place_of_worship", "denomination": "vaishnava", "name": "Ramanuja kota math", "religion": "hindu"}}, {"type": "node", "id": 13605291748, "lat": 19.7941346, "lon": 85.8155204, "tags": {"amenity": "place_of_worship", "denomination": "gaudiya_vaishnava", "name": "Raghunatha Das House", "religion": "hindu"}}, {"type": "node", "id": 13605291749, "lat": 19.7938906, "lon": 85.8152727, "tags": {"amenity": "place_of_worship", "denomination": "gaudiya_vaishnava", "name": "Swarupa Damodara House", "religion": "hindu"}}, {"type": "node", "id": 13605291750, "lat": 19.7937609, "lon": 85.8153254, "tags": {"amenity": "place_of_worship", "denomination": "gaudiya_vaishnava", "name": "Jagadananda's House", "religion": "hindu"}}, {"type": "node", "id": 13605291751, "lat": 19.7931412, "lon": 85.8145656, "tags": {"amenity": "place_of_worship", "denomination": "gaudiya_vaishnava", "name": "Sri Sri Haridas Meyh", "religion": "hindu"}}, {"type": "node", "id": 13605340832, "lat": 19.887043, "lon": 85.8220469, "tags": {"amenity": "place_of_worship", "name": "Kapateshvara Mahadeva Temple", "religion": "hindu"}}, {"type": "node", "id": 13605353209, "lat": 19.8906705, "lon": 85.8222934, "tags": {"amenity": "place_of_worship", "denomination": "gaudiya_vaishnava", "name": "Temple", "religion": "hindu"}}, {"type": "node", "id": 13605353210, "lat": 19.8907748, "lon": 85.8223237, "tags": {"amenity": "place_of_worship", "denomination": "gaudiya_vaishnava", "name": "Danda Bhanga", "religion": "hindu"}}, {"type": "node", "id": 13673756700, "lat": 19.9828494, "lon": 86.0185446, "tags": {"addr:city": "Gop", "addr:district": "Puri", "amenity": "school", "education": "school", "name": "Nigamananda Govt High School", "operator": "Govt Of Odisha", "operator:type": "government"}}, {"type": "node", "id": 13673808201, "lat": 19.983277, "lon": 86.0192313, "tags": {"addr:city": "Gop", "addr:district": "Puri", "amenity": "school", "education": "school", "name": "Govt Girls High School", "operator": "Govt Of Odisha", "operator:type": "government"}}, {"type": "node", "id": 13673808204, "lat": 19.9688057, "lon": 86.0294119, "tags": {"addr:city": "Gop", "addr:district": "Puri", "amenity": "college", "education": "college", "name": "Gop Collage", "operator": "Govt Of Odisha", "operator:type": "government"}}, {"type": "way", "id": 90630352, "nodes": [1051794981, 1051794530, 1051796898, 1051794596, 1051794981], "tags": {"amenity": "college", "education": "college", "name": "Sanskrit College"}}, {"type": "way", "id": 111810053, "nodes": [1273021263, 1273021256, 1273021221, 1273021202, 1273021263], "tags": {"amenity": "place_of_worship", "contact:email": "jagannath.or@nic.in", "contact:fax": "+91 6752 252100", "contact:phone": "+91 6752 222002", "contact:website": "http://www.jagannath.nic.in", "description": "The Puri temple is built on a gigantic raised platform in the heart of the city, The temple complex is enclosed by a wall about seven meters high -including the 0 height of the platform. The area of this platform is more than 4,20,000 sq.ft.", "name": "Jagannath Temple", "name:en": "Jagannath Temple", "name:hi": "\u0936\u094d\u0930\u0940 \u091c\u0917\u0928\u094d\u0928\u093e\u0925 \u092e\u0902\u0926\u093f\u0930", "name:kn": "\u0cb6\u0ccd\u0cb0\u0cc0 \u0c9c\u0c97\u0ca8\u0ccd\u0ca8\u0cbe\u0ca5 \u0ca6\u0cc7\u0cb5\u0cbe\u0cb2\u0caf", "name:or": "\u0b36\u0b4d\u0b30\u0b40 \u0b1c\u0b17\u0b28\u0b4d\u0b28\u0b3e\u0b25 \u0b2e\u0b28\u0b4d\u0b26\u0b3f\u0b30", "name:ru": "\u0425\u0440\u0430\u043c \u0414\u0436\u0430\u0433\u0430\u043d\u043d\u0430\u0442\u0445\u0438", "religion": "hindu"}}, {"type": "way", "id": 229144770, "nodes": [2377753835, 2377753838, 2377753840, 2377753842, 2377753835], "tags": {"addr:city": "Chandanpur", "addr:district": "Puri", "addr:full": "Chandanpur", "addr:postcode": "752012", "addr:state": "Odisha", "amenity": "hospital", "healthcare": "hospital", "healthcare:speciality": "community", "layer": "1", "name": "CHC, Chandanpur", "operator": "Government Of Odisha", "operator:type": "state_primary_health_care", "source": "OpenGovernmentData"}}, {"type": "way", "id": 323856325, "nodes": [3306257804, 3306257810, 3306257807, 3306257802, 3306257803, 3306257801, 3306257804], "tags": {"amenity": "place_of_worship", "denomination": "Gaudiya vaishnavism", "name": "Sakhigopal Temple", "name:ru": "\u0425\u0440\u0430\u043c \u0421\u0430\u043a\u0448\u0438\u0433\u043e\u043f\u0430\u043b\u0430", "religion": "hindu"}}, {"type": "way", "id": 323884642, "nodes": [3306584952, 3306584953, 3306584951, 3306584950, 3306584952], "tags": {"amenity": "place_of_worship", "name": "Gundicha Temple", "religion": "hindu"}}, {"type": "way", "id": 556758115, "nodes": [5370354152, 5370354153, 5370354154, 5370354155, 5370354152], "tags": {"amenity": "place_of_worship", "building": "yes", "religion": "hindu"}}, {"type": "way", "id": 657874438, "nodes": [6161245685, 6161245686, 6161245687, 6161245688, 6161245689, 6161245690, 6161245685], "tags": {"addr:city": "Puri", "addr:street": "VIP Road", "amenity": "college", "name": "S C S Collage"}}, {"type": "way", "id": 657876361, "nodes": [6161242618, 6161242619, 6161242620, 6161242621, 6161242622, 6161242623, 6161242624, 6161242618], "tags": {"addr:city": "Puri", "addr:postcode": "752001", "addr:street": "Grand Road", "building": "yes", "name": "Reliance Smart Bazaar", "opening_hours": "Mo-Su 10:00-22:00", "operator": "Reliance Retail", "payment:cash": "yes", "payment:coins": "yes", "payment:credit_cards": "yes", "payment:debit_cards": "yes", "payment:google_pay": "yes", "payment:mastercard": "yes", "payment:mastercard_contactless": "yes", "payment:visa": "yes", "phone": "1800 891 0001", "shop": "mall", "website": "https://relianceretail.com/"}}, {"type": "way", "id": 746288611, "nodes": [6984104359, 6984104358, 6984104357, 6984104356, 6984104355, 6984104354, 6984104353, 6984104352, 6984104351, 6984104359], "tags": {"amenity": "bus_station", "bus": "yes", "name": "Malatipatpur Bus Stand", "public_transport": "station"}}, {"type": "way", "id": 866150024, "nodes": [8073270471, 8073270472, 8073270473, 8073270474, 8073270475, 8073270476, 8073270477, 8073270478, 8073270479, 8073270480, 8073270471], "tags": {"addr:city": "Puri", "addr:postcode": "752002", "addr:street": "Governer house road", "leisure": "park", "name": "Mahatma Gandhi Park", "name:etymology:wikidata": "Q1001", "opening_hours": "Mo-Su 06:00-22:00", "operator": "Puri Municipality"}}, {"type": "way", "id": 1364539661, "nodes": [12636295874, 12636295875, 12636295876, 12636295877, 12636295874], "tags": {"amenity": "restaurant", "building": "yes", "cuisine": "indian", "name": "Nimantran"}}, {"type": "way", "id": 1364539667, "nodes": [12636295920, 12636295921, 12636295922, 12636295923, 12636295920], "tags": {"addr:city": "Puri", "addr:district": "Puri", "addr:postcode": "752001", "addr:street": "Marine Drive Road", "amenity": "cafe", "building": "yes", "name": "Cafe Cookies", "opening_hours": "Mo-Su 08:00-23:00"}}, {"type": "way", "id": 1377185719, "nodes": [12752066472, 12752066473, 12752066474, 12752066475, 12752066472], "tags": {"amenity": "place_of_worship", "building": "yes", "name": "Bipad Tarini Chandi Bari", "religion": "hindu"}}, {"type": "way", "id": 1388761733, "nodes": [12855309185, 12855309186, 12855309187, 12855309188, 12855309185], "tags": {"amenity": "restaurant", "building": "yes"}}, {"type": "way", "id": 1409419179, "nodes": [12951335009, 12951335010, 12951335011, 12951335012, 12951335013, 12951335014, 12951335015, 12951335016, 12951335009], "tags": {"amenity": "hospital", "healthcare": "hospital", "name": "Fahther Marian Lepra Centre"}}, {"type": "way", "id": 1443475776, "nodes": [13245738891, 13245738892, 13245738893, 13245738894, 13245738891], "tags": {"amenity": "place_of_worship", "building": "yes", "denomination": "vaishnavism", "name": "Sri Purusottam Math", "religion": "hindu"}}, {"type": "way", "id": 1443476413, "nodes": [13245732854, 13245732855, 13245732856, 13245732857, 13245732854], "tags": {"amenity": "place_of_worship", "building": "yes", "denomination": "vaishnavism", "name": "Bhajan Kutir of Bhakti Siddhanta Saraswati Goswami", "religion": "hindu"}}, {"type": "way", "id": 1478585790, "nodes": [13564315939, 13564315940, 13564315941, 13564315942, 13564315939], "tags": {"addr:city": "Puri", "addr:place": "Heragohiri Sahi", "addr:state": "Odisha", "alt_name": "Ahula Matha", "amenity": "place_of_worship", "building": "yes", "denomination": "gaudiya_vaishnavism", "description": "Ahulya Math (Ahula Matha), an old Gaudiya Vaishnava temple in Heragohiri Sahi where Advaita Acharya stayed. Based on historical sources from thegaudiyatreasuresofbengal.com and holydham.com.\"", "historic": "temple", "name": "Ahulya Math", "name:ru": "\u0410\u0445\u0443\u043b\u044c\u044f \u041c\u0430\u0442\u0445", "religion": "hindu"}}, {"type": "way", "id": 1478597204, "nodes": [13564433388, 13564433389, 13564433390, 13564433391, 13564433388], "tags": {"amenity": "bank", "brand": "Canara Bank", "brand:en": "Canara Bank", "brand:hi": "\u0915\u0947\u0928\u0930\u093e \u092c\u0948\u0902\u0915", "brand:kn": "\u0c95\u0cc6\u0ca8\u0cb0\u0cbe \u0cac\u0ccd\u0caf\u0cbe\u0c82\u0c95\u0ccd", "brand:pa": "\u0a15\u0a47\u0a28\u0a30\u0a3e \u0a2c\u0a48\u0a02\u0a15", "brand:pnb": "\u06a9\u06cc\u0646\u0631\u0627 \u0628\u06cc\u0646\u06a9", "brand:ur": "\u06a9\u06cc\u0646\u0631\u0627 \u0628\u06cc\u0646\u06a9", "brand:wikidata": "Q2003777", "building": "yes", "name": "Canara Bank", "name:en": "Canara Bank", "name:hi": "\u0915\u0947\u0928\u0930\u093e \u092c\u0948\u0902\u0915", "name:kn": "\u0c95\u0cc6\u0ca8\u0cb0\u0cbe \u0cac\u0ccd\u0caf\u0cbe\u0c82\u0c95\u0ccd", "name:pa": "\u0a15\u0a47\u0a28\u0a30\u0a3e \u0a2c\u0a48\u0a02\u0a15", "name:pnb": "\u06a9\u06cc\u0646\u0631\u0627 \u0628\u06cc\u0646\u06a9", "name:ur": "\u06a9\u06cc\u0646\u0631\u0627 \u0628\u06cc\u0646\u06a9", "operator": "Canara Bank"}}, {"type": "way", "id": 1478597699, "nodes": [13564395955, 13564395956, 13564395957, 13564395958, 13564395955], "tags": {"addr:city": "Puri", "addr:street": "Grand Road", "building": "yes", "name": "Smart bazar", "shop": "supermarket"}}, {"type": "way", "id": 1478607626, "nodes": [13564557077, 13564557078, 13564557079, 13564557080, 13564557081, 13564557082, 13564557077], "tags": {"amenity": "place_of_worship", "building": "yes"}}, {"type": "way", "id": 1478658361, "nodes": [13564984209, 13564984210, 13564984211, 13564984212, 13564984209], "tags": {"amenity": "place_of_worship", "building": "yes"}}, {"type": "way", "id": 1478658362, "nodes": [13564984213, 13564984214, 13564984215, 13564984216, 13564984213], "tags": {"amenity": "place_of_worship", "building": "yes"}}, {"type": "way", "id": 1478736460, "nodes": [13565871142, 13565871143, 13565871144, 13565871145, 13565871142], "tags": {"amenity": "place_of_worship", "building": "yes", "denomination": "gaudiya_vaishnava", "name": "Shri Brahma Gaudiya Math", "religion": "hindu"}}, {"type": "way", "id": 1483780380, "nodes": [13605228837, 13605228838, 13605228839, 13605228840, 13605228837], "tags": {"amenity": "place_of_worship", "building": "yes"}}]}