{"version": 0.6, "generator": "Overpass API 0.7.62.11 87bfad18", "osm3s": {"timestamp_osm_base": "2026-04-24T05:32:00Z", "copyright": "The data included in this document is from www.openstreetmap.org. The data is made available under ODbL."}, "elements": [{"type": "node", "id": 6102855924, "lat": 21.5891126, "lon": 83.078388}, {"type": "node", "id": 6102855925, "lat": 21.5895914, "lon": 83.0784792}, {"type": "node", "id": 6102855926, "lat": 21.5896862, "lon": 83.0780339}, {"type": "node", "id": 6102855927, "lat": 21.5892572, "lon": 83.0778515}, {"type": "node", "id": 7148125280, "lat": 21.3217841, "lon": 82.9765677, "tags": {"addr:district": "Mahasamund", "addr:full": "bhawarpur rod", "addr:postcode": "493558", "addr:state": "Chhattisgarh", "addr:subdistrict": "Saraipali", "amenity": "hospital", "name": "Government Hospital, Saraipa", "source": "OpenGovernmentData"}}, {"type": "node", "id": 7148125325, "lat": 21.278119, "lon": 82.82385, "tags": {"addr:district": "Mahasamund", "addr:full": "Basna", "addr:postcode": "493554", "addr:state": "Chhattisgarh", "addr:subdistrict": "Basna", "amenity": "hospital", "name": "Government Hospital Basna", "source": "OpenGovernmentData"}}, {"type": "way", "id": 650583855, "nodes": [6102855927, 6102855926, 6102855925, 6102855924, 6102855927], "tags": {"amenity": "bus_station"}}]}