{"version": 0.6, "generator": "Overpass API 0.7.62.11 87bfad18", "osm3s": {"timestamp_osm_base": "2026-04-24T05:28:59Z", "copyright": "The data included in this document is from www.openstreetmap.org. The data is made available under ODbL."}, "elements": [{"type": "node", "id": 1669263091, "lat": 24.4921351, "lon": 86.7001822}, {"type": "node", "id": 1669263096, "lat": 24.4924581, "lon": 86.6993248}, {"type": "node", "id": 1669263098, "lat": 24.492689, "lon": 86.7004956}, {"type": "node", "id": 1669263101, "lat": 24.4928148, "lon": 86.7003072}, {"type": "node", "id": 1669263103, "lat": 24.4930983, "lon": 86.7004328}, {"type": "node", "id": 1669263106, "lat": 24.4933224, "lon": 86.6999228}, {"type": "node", "id": 1678265020, "lat": 24.1852562, "lon": 86.3035705, "tags": {"amenity": "bus_station", "bus": "yes", "public_transport": "station"}}, {"type": "node", "id": 4007361426, "lat": 24.5048933, "lon": 86.6778212}, {"type": "node", "id": 4007361427, "lat": 24.5045663, "lon": 86.6776951}, {"type": "node", "id": 4007361428, "lat": 24.5043954, "lon": 86.677687}, {"type": "node", "id": 4007361429, "lat": 24.5042758, "lon": 86.6780894}, {"type": "node", "id": 4007361430, "lat": 24.5048567, "lon": 86.6782879}, {"type": "node", "id": 4007361431, "lat": 24.5048469, "lon": 86.6779365}, {"type": "node", "id": 4007361565, "lat": 24.502219, "lon": 86.7008417}, {"type": "node", "id": 4007361566, "lat": 24.5016521, "lon": 86.7007931}, {"type": "node", "id": 4007361567, "lat": 24.5014911, "lon": 86.7010993}, {"type": "node", "id": 4007361568, "lat": 24.5008356, "lon": 86.7009319}, {"type": "node", "id": 4007361569, "lat": 24.499866, "lon": 86.7009346}, {"type": "node", "id": 4007361570, "lat": 24.4995241, "lon": 86.7009239}, {"type": "node", "id": 4007361571, "lat": 24.4985967, "lon": 86.7005457}, {"type": "node", "id": 4007361572, "lat": 24.4982463, "lon": 86.6999058}, {"type": "node", "id": 4007361573, "lat": 24.497976, "lon": 86.6996934}, {"type": "node", "id": 4007361574, "lat": 24.4982662, "lon": 86.6990471}, {"type": "node", "id": 4007361575, "lat": 24.4983456, "lon": 86.6989161}, {"type": "node", "id": 4007361576, "lat": 24.4990476, "lon": 86.6990907}, {"type": "node", "id": 4007361577, "lat": 24.4999614, "lon": 86.6995565}, {"type": "node", "id": 4007361578, "lat": 24.5025176, "lon": 86.6999349}, {"type": "node", "id": 4007361579, "lat": 24.4989019, "lon": 86.6989379}, {"type": "node", "id": 4007361580, "lat": 24.4989746, "lon": 86.7007356}, {"type": "node", "id": 4007361593, "lat": 24.5110836, "lon": 86.6921244}, {"type": "node", "id": 4007361594, "lat": 24.5114279, "lon": 86.6946788}, {"type": "node", "id": 4007361595, "lat": 24.5111365, "lon": 86.6968838}, {"type": "node", "id": 4007361596, "lat": 24.511355, "lon": 86.696913}, {"type": "node", "id": 4007361597, "lat": 24.5111829, "lon": 86.698121}, {"type": "node", "id": 4007361598, "lat": 24.5083952, "lon": 86.6983248}, {"type": "node", "id": 4007361599, "lat": 24.5084349, "lon": 86.6974224}, {"type": "node", "id": 4007361600, "lat": 24.5085541, "lon": 86.6974224}, {"type": "node", "id": 4007361601, "lat": 24.5085607, "lon": 86.6973205}, {"type": "node", "id": 4007361602, "lat": 24.5084548, "lon": 86.6972987}, {"type": "node", "id": 4007361603, "lat": 24.5086998, "lon": 86.6963453}, {"type": "node", "id": 4007361604, "lat": 24.5086932, "lon": 86.6961052}, {"type": "node", "id": 4007361605, "lat": 24.5085144, "lon": 86.6960761}, {"type": "node", "id": 4007361606, "lat": 24.5085144, "lon": 86.6959742}, {"type": "node", "id": 4007361607, "lat": 24.5083753, "lon": 86.6959523}, {"type": "node", "id": 4007361608, "lat": 24.5084283, "lon": 86.6954648}, {"type": "node", "id": 4007361609, "lat": 24.5087726, "lon": 86.6954866}, {"type": "node", "id": 4007361610, "lat": 24.5089183, "lon": 86.6935217}, {"type": "node", "id": 4007361611, "lat": 24.5091964, "lon": 86.6934853}, {"type": "node", "id": 4007361612, "lat": 24.5094017, "lon": 86.6929177}, {"type": "node", "id": 4007361613, "lat": 24.5071978, "lon": 86.6937661}, {"type": "node", "id": 4007361614, "lat": 24.5022788, "lon": 86.695788}, {"type": "node", "id": 4007361615, "lat": 24.5074866, "lon": 86.6987526}, {"type": "node", "id": 4007361616, "lat": 24.5070179, "lon": 86.6972477}, {"type": "node", "id": 4007361622, "lat": 24.5054422, "lon": 86.6944939}, {"type": "node", "id": 4007361623, "lat": 24.503638, "lon": 86.695156}, {"type": "node", "id": 4007361624, "lat": 24.5032842, "lon": 86.6948556}, {"type": "node", "id": 4007361625, "lat": 24.5035938, "lon": 86.6950235}, {"type": "node", "id": 4007361626, "lat": 24.5038712, "lon": 86.6935434}, {"type": "node", "id": 4007361627, "lat": 24.4975913, "lon": 86.6946182}, {"type": "node", "id": 4007361628, "lat": 24.4972741, "lon": 86.6955167}, {"type": "node", "id": 4007361629, "lat": 24.4971422, "lon": 86.6961417}, {"type": "node", "id": 4007361630, "lat": 24.4972716, "lon": 86.6963938}, {"type": "node", "id": 4007361631, "lat": 24.497213, "lon": 86.696544}, {"type": "node", "id": 4007361632, "lat": 24.4977939, "lon": 86.6967693}, {"type": "node", "id": 4007361633, "lat": 24.4978769, "lon": 86.6967371}, {"type": "node", "id": 4007361634, "lat": 24.4975523, "lon": 86.6960853}, {"type": "node", "id": 4007361635, "lat": 24.4974693, "lon": 86.6956723}, {"type": "node", "id": 4007361636, "lat": 24.4975059, "lon": 86.6951895}, {"type": "node", "id": 4007361637, "lat": 24.4976231, "lon": 86.6946477}, {"type": "node", "id": 4007404310, "lat": 24.4886316, "lon": 86.6993394}, {"type": "node", "id": 4007404311, "lat": 24.4886785, "lon": 86.700054}, {"type": "node", "id": 4007404312, "lat": 24.4883583, "lon": 86.7001381}, {"type": "node", "id": 4007404313, "lat": 24.4880188, "lon": 86.6995056}, {"type": "node", "id": 4269583580, "lat": 24.5100199, "lon": 86.6926966}, {"type": "node", "id": 7011436380, "lat": 24.2001522, "lon": 86.2776035, "tags": {"addr:district": "Giridih", "addr:full": "Boro", "addr:postcode": "815301", "addr:state": "Jharkhand", "amenity": "hospital", "name": "Sahyog Hospital, Giridih", "source": "OpenGovernmentData"}}, {"type": "node", "id": 7011736861, "lat": 24.1890244, "lon": 86.3008301, "tags": {"addr:district": "Giridih", "addr:full": "Main Road", "addr:postcode": "815301", "addr:state": "Jharkhand", "amenity": "hospital", "name": "Rotary Eye Hospital", "source": "OpenGovernmentData"}}, {"type": "node", "id": 7012150002, "lat": 24.1903572, "lon": 86.2945323, "tags": {"addr:district": "Giridih", "addr:full": "Bhandaridih", "addr:postcode": "815301", "addr:state": "Jharkhand", "amenity": "clinic", "name": "Azad Nursing Home", "source": "OpenGovernmentData"}}, {"type": "node", "id": 7012216039, "lat": 24.4842584, "lon": 86.6930267, "tags": {"addr:district": "Deoghar", "addr:full": "Thana Road, Deoghar", "addr:postcode": "814112", "addr:state": "Jharkhand", "amenity": "hospital", "name": "Baidyanath Shankar Eye Hospital", "source": "OpenGovernmentData"}}, {"type": "node", "id": 7012734447, "lat": 24.1963625, "lon": 86.2814444, "tags": {"addr:district": "Giridih", "addr:full": "Boro, P.O.- Pachamba", "addr:postcode": "815301", "addr:state": "Jharkhand", "amenity": "hospital", "name": "G D Bagaria Sewa Sadan", "source": "OpenGovernmentData"}}, {"type": "node", "id": 7015084329, "lat": 24.4813365, "lon": 86.6978815, "tags": {"addr:district": "Deoghar", "addr:full": "Bawan Bigha Castairs Town", "addr:postcode": "814112", "addr:state": "Jharkhand", "amenity": "hospital", "name": "Maa Lalita Hospital and Research Center Pvt Ltd", "source": "OpenGovernmentData"}}, {"type": "node", "id": 7015176168, "lat": 24.1904013, "lon": 86.3086702, "tags": {"addr:district": "Giridih", "addr:full": "Makatpur , Barganda Road, Giridih, Jharkhand", "addr:postcode": "815301", "addr:state": "Jharkhand", "amenity": "clinic", "healthcare": "clinic", "name": "Shivam Clinic", "source": "OpenGovernmentData"}}, {"type": "node", "id": 7121616436, "lat": 24.544284, "lon": 86.6858474, "tags": {"addr:district": "Deoghar", "addr:full": "Near Kali Mandir, Kothia, Pachhiari Kothia", "addr:postcode": "814113", "addr:state": "Jharkhand", "addr:subdistrict": "Deoghar", "amenity": "clinic", "description": "Primary Health Centre", "healthcare": "centre", "name": "PHC, Baghmara", "source": "OpenGovernmentData"}}, {"type": "node", "id": 7121616439, "lat": 24.202591, "lon": 86.3196056, "tags": {"addr:district": "Giridih", "addr:full": "Seodi", "addr:postcode": "815312", "addr:state": "Jharkhand", "addr:subdistrict": "Giridih", "amenity": "hospital", "name": "Government hospital,Seodi", "source": "OpenGovernmentData"}}, {"type": "node", "id": 7121616452, "lat": 24.1817189, "lon": 86.2813073, "tags": {"addr:district": "Giridih", "addr:full": "Hooty Bazar, Mahthadih,Chaitadih", "addr:postcode": "815301", "addr:state": "Jharkhand", "addr:subdistrict": "Giridih", "amenity": "hospital", "description": "District Hospital", "name": "Sadar Hospital,Mahthadih", "source": "OpenGovernmentData"}}, {"type": "node", "id": 7121616470, "lat": 24.3560672, "lon": 86.5415526, "tags": {"addr:district": "Deoghar", "addr:full": "Near CSP SBI, Burhai, Main Road", "addr:postcode": "815353", "addr:state": "Jharkhand", "addr:subdistrict": "Madhupur", "amenity": "clinic", "description": "Primary Health Centre", "healthcare": "centre", "name": "PHC, Burhai", "source": "OpenGovernmentData"}}, {"type": "node", "id": 7121616508, "lat": 24.4909157, "lon": 86.6940043, "tags": {"addr:district": "Deoghar", "addr:full": "Near Head Post Office, Deoghar, Williams Town", "addr:postcode": "814112", "addr:state": "Jharkhand", "addr:subdistrict": "Deoghar", "amenity": "hospital", "name": "Sadar Hospital,Deoghar", "source": "OpenGovernmentData"}}, {"type": "node", "id": 7121616532, "lat": 24.257905, "lon": 86.650618, "tags": {"addr:district": "Deoghar", "addr:full": "Near Ramleela Maidan, Madhupur, Kusmaha-Madhupur Road", "addr:postcode": "815353", "addr:state": "Jharkhand", "addr:subdistrict": "Madhupur", "amenity": "hospital", "name": "Sadar Hospital,Madhupur", "source": "OpenGovernmentData"}}, {"type": "node", "id": 7121616549, "lat": 24.1790576, "lon": 86.4629452, "tags": {"addr:district": "Giridih", "addr:full": "Gandey, Rukotanr", "addr:postcode": "815312", "addr:state": "Jharkhand", "addr:subdistrict": "Gandey", "amenity": "hospital", "description": "Community Health Center", "healthcare": "centre", "name": "Community Health Centre, Gandey", "source": "OpenGovernmentData"}}, {"type": "node", "id": 7121616555, "lat": 24.187887, "lon": 86.306471, "tags": {"addr:district": "Giridih", "addr:full": "New Barganda, Giridih", "addr:postcode": "815301", "addr:state": "Jharkhand", "addr:subdistrict": "Giridih", "amenity": "hospital", "healthcare": "hospital", "name": "Sadar hospital, Giridih", "source": "OpenGovernmentData"}}, {"type": "node", "id": 7614811409, "lat": 24.185553, "lon": 86.3081229, "tags": {"amenity": "place_of_worship", "name": "Kali Badi Temple", "religion": "hindu"}}, {"type": "node", "id": 7614829283, "lat": 24.1890617, "lon": 86.3032923}, {"type": "node", "id": 7614829284, "lat": 24.1881808, "lon": 86.3040138}, {"type": "node", "id": 7614833585, "lat": 24.1890959, "lon": 86.3044644}, {"type": "node", "id": 7614833586, "lat": 24.1894433, "lon": 86.3040567}, {"type": "node", "id": 7673228907, "lat": 24.391223, "lon": 86.67526, "tags": {"addr:district": "Deoghar", "addr:full": "SB Roy Road, Simra", "addr:postcode": "814114", "addr:state": "Jharkhand", "amenity": "clinic", "name": "Sonu Monu Clinic", "source": "Local Knowledge"}}, {"type": "node", "id": 7673228920, "lat": 24.2642253, "lon": 86.6483418, "tags": {"addr:district": "Deoghar", "addr:full": "Madhupur", "addr:postcode": "815353", "addr:state": "Jharkhand", "amenity": "hospital", "name": "Life Line Nursing Home", "source": "Local Knowledge"}}, {"type": "node", "id": 7673228955, "lat": 24.2688696, "lon": 86.6474602, "tags": {"addr:district": "Deoghar", "addr:full": "Amtalla Bherwa, Madhupur", "addr:postcode": "815353", "addr:state": "Jharkhand", "amenity": "hospital", "name": "Sinha First Aid Nursing Home", "source": "Local Knowledge"}}, {"type": "node", "id": 7673228962, "lat": 24.272989, "lon": 86.6441016, "tags": {"addr:district": "Deoghar", "addr:full": "Belpara, Madhupur", "addr:postcode": "815353", "addr:state": "Jharkhand", "amenity": "hospital", "name": "Heena Hospital", "source": "Local Knowledge"}}, {"type": "node", "id": 7673228976, "lat": 24.259044, "lon": 86.651338, "tags": {"addr:district": "Deoghar", "addr:full": "Madhupur", "addr:postcode": "815353", "addr:state": "Jharkhand", "amenity": "hospital", "name": "Referral Hospital", "source": "Local Knowledge"}}, {"type": "node", "id": 7673228980, "lat": 24.388717, "lon": 86.673364, "tags": {"addr:district": "Deoghar", "addr:full": "Chichahra", "addr:postcode": "814114", "addr:state": "Jharkhand", "amenity": "clinic", "name": "Dr. Hira lal Home and Clinic", "source": "Local Knowledge"}}, {"type": "node", "id": 7673347839, "lat": 24.4847858, "lon": 86.6896239, "tags": {"addr:district": "Deoghar", "addr:full": "Kunj Vihar, Castairs Town, Bompas Town, Deoghar", "addr:postcode": "814112", "addr:state": "Jharkhand", "amenity": "hospital", "name": "Sai Ram Hospital", "source": "Local Knowledge"}}, {"type": "node", "id": 7673347841, "lat": 24.199553, "lon": 86.276524, "tags": {"addr:district": "Giridih", "addr:full": "Pachamba, Giridih", "addr:postcode": "815316", "addr:state": "Jharkhand", "amenity": "hospital", "name": "Navdeep Nursing Home", "source": "Local Knowledge"}}, {"type": "node", "id": 7673347842, "lat": 24.4996122, "lon": 86.6871043, "tags": {"addr:district": "Deoghar", "addr:full": "Pari Road, Williams Town, Deoghar", "addr:postcode": "814112", "addr:state": "Jharkhand", "amenity": "clinic", "name": "H.F.B Clinic", "source": "Local Knowledge"}}, {"type": "node", "id": 7673347844, "lat": 24.1960042, "lon": 86.2811138, "tags": {"addr:district": "Giridih", "addr:full": "Bhandaridih, Giridih", "addr:postcode": "815311", "addr:state": "Jharkhand", "amenity": "hospital", "name": "Star Hospital", "source": "Local Knowledge"}}, {"type": "node", "id": 7673347845, "lat": 24.490308, "lon": 86.688553, "tags": {"addr:district": "Deoghar", "addr:full": "Williams Town, Deoghar", "addr:postcode": "814112", "addr:state": "Jharkhand", "amenity": "clinic", "name": "City Clinic", "source": "Local Knowledge"}}, {"type": "node", "id": 7673347851, "lat": 24.4849893, "lon": 86.6941232, "tags": {"addr:district": "Deoghar", "addr:full": "Bajla Chowk, Deoghar", "addr:postcode": "814112", "addr:state": "Jharkhand", "amenity": "clinic", "name": "Aparna Clinic", "source": "Local Knowledge"}}, {"type": "node", "id": 7673347856, "lat": 24.485952, "lon": 86.6968369, "tags": {"addr:district": "Deoghar", "addr:full": "Castair's Town, Deoghar", "addr:postcode": "814112", "addr:state": "Jharkhand", "amenity": "hospital", "name": "Shivlok Surgical Hospital", "source": "Local Knowledge"}}, {"type": "node", "id": 7673347858, "lat": 24.492504, "lon": 86.694955, "tags": {"addr:district": "Deoghar", "addr:full": "Near Tower Chowk, Shyamganj Road, Deoghar", "addr:postcode": "814112", "addr:state": "Jharkhand", "amenity": "hospital", "name": "Shivay Hospital", "source": "Local Knowledge"}}, {"type": "node", "id": 7673347859, "lat": 24.1895966, "lon": 86.3063315, "tags": {"addr:district": "Giridih", "addr:full": "New Barganda, Giridih", "addr:postcode": "815301", "addr:state": "Jharkhand", "amenity": "hospital", "healthcare": "hospital", "name": "Navjeevan Nursing Home", "source": "Local Knowledge"}}, {"type": "node", "id": 7673347860, "lat": 24.4902517, "lon": 86.6960474, "tags": {"addr:district": "Deoghar", "addr:full": "Deoghar", "addr:postcode": "814112", "addr:state": "Jharkhand", "amenity": "clinic", "name": "Akarsh Clinic", "source": "Local Knowledge"}}, {"type": "node", "id": 7673347865, "lat": 24.5085856, "lon": 86.6546569, "tags": {"addr:district": "Deoghar", "addr:full": "Ramchandrapur, Jasidih", "addr:postcode": "814142", "addr:state": "Jharkhand", "amenity": "clinic", "name": "Mandilwar Clinic", "source": "Local Knowledge"}}, {"type": "node", "id": 7673347871, "lat": 24.484379, "lon": 86.689628, "tags": {"addr:district": "Deoghar", "addr:full": "Subhash Chowk, Deoghar", "addr:postcode": "814112", "addr:state": "Jharkhand", "amenity": "hospital", "name": "Deoghar Children and Eye Hospital", "source": "Local Knowledge"}}, {"type": "node", "id": 7673347873, "lat": 24.4848146, "lon": 86.6936318, "tags": {"addr:district": "Deoghar", "addr:full": "Castairs Town, Bompas Town, Deoghar", "addr:postcode": "814112", "addr:state": "Jharkhand", "amenity": "hospital", "name": "Medinobha Newborn & Child Care Centre", "source": "Local Knowledge"}}, {"type": "node", "id": 7673347874, "lat": 24.4885112, "lon": 86.6923321, "tags": {"addr:district": "Deoghar", "addr:full": "Malgodam Road, Castairs Town, Bompas Town, Deoghar", "addr:postcode": "814112", "addr:state": "Jharkhand", "amenity": "hospital", "name": "Dr. Subashchandra Chowdhri Hospital", "source": "Local Knowledge"}}, {"type": "node", "id": 7673347876, "lat": 24.4889491, "lon": 86.695359, "tags": {"addr:district": "Deoghar", "addr:full": "Caster Town, Deoghar", "addr:postcode": "814112", "addr:state": "Jharkhand", "amenity": "clinic", "name": "Dr. Roja Minj Clinic", "source": "Local Knowledge"}}, {"type": "node", "id": 7673347878, "lat": 24.485824, "lon": 86.690344, "tags": {"addr:district": "Deoghar", "addr:full": "Kunj Vihar, Castairs Town, Bompas Town, Deoghar", "addr:postcode": "814112", "addr:state": "Jharkhand", "amenity": "hospital", "name": "Dr. Sikandar Singh Hospital", "source": "Local Knowledge"}}, {"type": "node", "id": 7673347880, "lat": 24.190418, "lon": 86.308757, "tags": {"addr:district": "Giridih", "addr:full": "Barganda Road, New Barganda, Giridih", "addr:postcode": "815301", "addr:state": "Jharkhand", "amenity": "clinic", "healthcare": "clinic", "name": "Dr. Indira Singh Shivam Clinic", "source": "Local Knowledge"}}, {"type": "node", "id": 7673347882, "lat": 24.4843798, "lon": 86.6912345, "tags": {"addr:district": "Deoghar", "addr:full": "Castairs Town, Bompas Town, Deoghar", "addr:postcode": "814112", "addr:state": "Jharkhand", "amenity": "hospital", "name": "Vinayak Hospital", "source": "Local Knowledge"}}, {"type": "node", "id": 7673347883, "lat": 24.4843088, "lon": 86.6882317, "tags": {"addr:district": "Deoghar", "addr:full": "Subhash Chowk, Castairs Town, Deoghar", "addr:postcode": "814112", "addr:state": "Jharkhand", "amenity": "hospital", "name": "Sudhir Hospital", "source": "Local Knowledge"}}, {"type": "node", "id": 7673347884, "lat": 24.202337, "lon": 86.2790589, "tags": {"addr:district": "Giridih", "addr:full": "Pachamba, Giridih", "addr:postcode": "815316", "addr:state": "Jharkhand", "amenity": "clinic", "name": "Sanjivani Day - Care Clinic", "source": "Local Knowledge"}}, {"type": "node", "id": 7673347890, "lat": 24.485373, "lon": 86.6889973, "tags": {"addr:district": "Deoghar", "addr:full": "Sunderlal Mishra Path", "addr:postcode": "815353", "addr:state": "Jharkhand", "amenity": "clinic", "name": "Purna Jiwan Clinic", "source": "Local Knowledge"}}, {"type": "node", "id": 7673347891, "lat": 24.4910909, "lon": 86.6852638, "tags": {"addr:district": "Deoghar", "addr:full": "Court Road, Deoghar", "addr:postcode": "814112", "addr:state": "Jharkhand", "amenity": "hospital", "name": "Parwati Devi Children Hospital", "source": "Local Knowledge"}}, {"type": "node", "id": 7673347892, "lat": 24.1835692, "lon": 86.3097094, "tags": {"addr:district": "Giridih", "addr:full": "Station Road, Barwadih, Giridih", "addr:postcode": "815301", "addr:state": "Jharkhand", "amenity": "hospital", "healthcare": "hospital", "name": "Dr. Arvind's Eye Hospital", "source": "Local Knowledge"}}, {"type": "node", "id": 7673347893, "lat": 24.512662, "lon": 86.650947, "tags": {"addr:district": "Deoghar", "addr:full": "Nirmalanjali, Ramchandrapur, Jasidih", "addr:postcode": "814142", "addr:state": "Jharkhand", "amenity": "clinic", "name": "Mindra Children's Clinic", "source": "Local Knowledge"}}, {"type": "node", "id": 7673347895, "lat": 24.1899101, "lon": 86.3013479, "tags": {"addr:district": "Giridih", "addr:full": "Shastri Nagar, Giridih", "addr:postcode": "815301", "addr:state": "Jharkhand", "amenity": "clinic", "name": "Jeevan Jyoti Clinic", "source": "Local Knowledge"}}, {"type": "node", "id": 7673347896, "lat": 24.188657, "lon": 86.311712, "tags": {"addr:district": "Giridih", "addr:full": "Jai Prakash Nagar, Giridih", "addr:postcode": "815301", "addr:state": "Jharkhand", "amenity": "hospital", "healthcare": "hospital", "name": "Vishwanath Nursing Home", "source": "Local Knowledge"}}, {"type": "node", "id": 7673347897, "lat": 24.485453, "lon": 86.693293, "tags": {"addr:district": "Deoghar", "addr:full": "Castairs Town, Bompas Town, Deoghar", "addr:postcode": "814112", "addr:state": "Jharkhand", "amenity": "hospital", "name": "Dr. Neha Priya Hospital", "source": "Local Knowledge"}}, {"type": "node", "id": 7673347898, "lat": 24.5107647, "lon": 86.6472057, "tags": {"addr:district": "Deoghar", "addr:full": "Jasidih", "addr:postcode": "814142", "addr:state": "Jharkhand", "amenity": "hospital", "name": "ESI Hospital", "source": "Local Knowledge"}}, {"type": "node", "id": 7673347899, "lat": 24.4978153, "lon": 86.6994997, "tags": {"addr:district": "Deoghar", "addr:full": "Deoghar", "addr:postcode": "814112", "addr:state": "Jharkhand", "amenity": "hospital", "name": "Care and Cure Centre Hospital", "source": "Local Knowledge"}}, {"type": "node", "id": 7673347900, "lat": 24.1822112, "lon": 86.3079529, "tags": {"addr:district": "Giridih", "addr:full": "Goinka Hospital Road, Buxidih, Giridih", "addr:postcode": "815301", "addr:state": "Jharkhand", "amenity": "hospital", "healthcare": "hospital", "name": "Goenka Hospital", "source": "Local Knowledge"}}, {"type": "node", "id": 7673347904, "lat": 24.4843913, "lon": 86.6870701, "tags": {"addr:district": "Deoghar", "addr:full": "Castairs Town, Satsang Nagar, Deoghar", "addr:postcode": "814112", "addr:state": "Jharkhand", "amenity": "hospital", "name": "Laxmi Narayan Hospital", "source": "Local Knowledge"}}, {"type": "node", "id": 7673347906, "lat": 24.484691, "lon": 86.693126, "tags": {"addr:district": "Deoghar", "addr:full": "Near Bajla Chowk, Castairs Town, Deoghar", "addr:postcode": "814112", "addr:state": "Jharkhand", "amenity": "hospital", "name": "Dr. Anand Kumar Jain Children's Hospital", "source": "Local Knowledge"}}, {"type": "node", "id": 7673347908, "lat": 24.4862034, "lon": 86.6924586, "tags": {"addr:district": "Deoghar", "addr:full": "Castairs Town, Bompas Town, Deoghar", "addr:postcode": "814112", "addr:state": "Jharkhand", "amenity": "clinic", "name": "Divya Jyoti Clinic", "source": "Local Knowledge"}}, {"type": "node", "id": 7673347909, "lat": 24.4904041, "lon": 86.6957312, "tags": {"addr:district": "Deoghar", "addr:full": "Deoghar", "addr:postcode": "814112", "addr:state": "Jharkhand", "amenity": "clinic", "name": "Dr. N C Gandhi Clinic", "source": "Local Knowledge"}}, {"type": "node", "id": 7673347910, "lat": 24.517253, "lon": 86.6530981, "tags": {"addr:district": "Deoghar", "addr:full": "Jasidih Station Road, Jasidih", "addr:postcode": "814112", "addr:state": "Jharkhand", "amenity": "hospital", "name": "St. Francis Hospital", "source": "Local Knowledge"}}, {"type": "node", "id": 7673347913, "lat": 24.4764002, "lon": 86.6874369, "tags": {"addr:district": "Deoghar", "addr:full": "Bompas Town, Deoghar", "addr:postcode": "814114", "addr:state": "Jharkhand", "amenity": "hospital", "name": "Maa Durga Memorial Hospital", "source": "Local Knowledge"}}, {"type": "node", "id": 7673347916, "lat": 24.486751, "lon": 86.692589, "tags": {"addr:district": "Deoghar", "addr:full": "Castairs Town, Bompas Town, Deoghar", "addr:postcode": "814112", "addr:state": "Jharkhand", "amenity": "hospital", "name": "Tridev Hospital", "source": "Local Knowledge"}}, {"type": "node", "id": 7673347918, "lat": 24.481542, "lon": 86.675938, "tags": {"addr:district": "Deoghar", "addr:full": "Shankar Mandal Road, Satsang Nagar, Deoghar", "addr:postcode": "814116", "addr:state": "Jharkhand", "amenity": "hospital", "name": "Doota - Deepti Satsang Charitable Hospital", "source": "Local Knowledge"}}, {"type": "node", "id": 7673347920, "lat": 24.4922915, "lon": 86.6912114, "tags": {"addr:district": "Deoghar", "addr:full": "R.R Buxi Road, Deoghar", "addr:postcode": "814112", "addr:state": "Jharkhand", "amenity": "hospital", "name": "Maa Gayatri Health Centre", "source": "Local Knowledge"}}, {"type": "node", "id": 7673347921, "lat": 24.486304, "lon": 86.693367, "tags": {"addr:district": "Deoghar", "addr:full": "Castairs Town, Bompas Town, Deoghar", "addr:postcode": "814112", "addr:state": "Jharkhand", "amenity": "hospital", "name": "Dr. Anju Bala Memorial Hospital", "source": "Local Knowledge"}}, {"type": "node", "id": 7673347924, "lat": 24.1929158, "lon": 86.3059488, "tags": {"addr:district": "Giridih", "addr:full": "New Barganda, Giridih", "addr:postcode": "815301", "addr:state": "Jharkhand", "amenity": "clinic", "healthcare": "clinic", "name": "Shivam Clinic", "source": "Local Knowledge"}}, {"type": "node", "id": 7673347925, "lat": 24.4947828, "lon": 86.6785187, "tags": {"addr:district": "Deoghar", "addr:full": "Shrikant Road, Belabagan, Deoghar", "addr:postcode": "814112", "addr:state": "Jharkhand", "amenity": "hospital", "name": "Navjiwan Hospital", "source": "Local Knowledge"}}, {"type": "node", "id": 7673347926, "lat": 24.4933184, "lon": 86.695855, "tags": {"addr:district": "Deoghar", "addr:full": "Shivganga Muhalla, Deoghar", "addr:postcode": "814112", "addr:state": "Jharkhand", "amenity": "hospital", "name": "Al-Kausar Holy Herbal Hospital & Research Centre", "source": "Local Knowledge"}}, {"type": "node", "id": 7673347927, "lat": 24.1992402, "lon": 86.2805709, "tags": {"addr:district": "Giridih", "addr:full": "Pachamba, Giridih", "addr:postcode": "815316", "addr:state": "Jharkhand", "amenity": "hospital", "name": "Jeevan Dhara Nursing Home", "source": "Local Knowledge"}}, {"type": "node", "id": 7673347928, "lat": 24.4798819, "lon": 86.6977083, "tags": {"addr:district": "Deoghar", "addr:full": "Karnibad, Deoghar", "addr:postcode": "814112", "addr:state": "Jharkhand", "amenity": "hospital", "name": "Braunwald Hospitals", "source": "Local Knowledge"}}, {"type": "node", "id": 7673347929, "lat": 24.484327, "lon": 86.691434, "tags": {"addr:district": "Deoghar", "addr:full": "Castairs Town, Bompas Town, Deoghar", "addr:postcode": "814112", "addr:state": "Jharkhand", "amenity": "hospital", "name": "Dr. K Pallavi Hospital"}}, {"type": "node", "id": 7673347930, "lat": 24.4779478, "lon": 86.6446944, "tags": {"addr:district": "Deoghar", "addr:full": "Hatiya Chowk, Rohini", "addr:postcode": "814152", "addr:state": "Jharkhand", "amenity": "hospital", "name": "Vinayak Hospital", "source": "Local Knowledge"}}, {"type": "node", "id": 7673347931, "lat": 24.5125836, "lon": 86.6540937, "tags": {"addr:district": "Deoghar", "addr:full": "Jasidih", "addr:postcode": "814142", "addr:state": "Jharkhand", "amenity": "hospital", "name": "Shivanta Hospital", "source": "Local Knowledge"}}, {"type": "node", "id": 7673347932, "lat": 24.4848792, "lon": 86.6902204, "tags": {"addr:district": "Deoghar", "addr:full": "Netaji Subash Road, Kunj Vihar, Castairs Town, Chowk", "addr:postcode": "814112", "addr:state": "Jharkhand", "amenity": "clinic", "name": "Ajay Sudha Clinic", "source": "Local Knowledge"}}, {"type": "node", "id": 7673347933, "lat": 24.4923083, "lon": 86.685614, "tags": {"addr:district": "Deoghar", "addr:full": "Purandaha, Deoghar", "addr:postcode": "814112", "addr:state": "Jharkhand", "amenity": "clinic", "name": "Nagraj Clinic", "source": "Local Knowledge"}}, {"type": "node", "id": 7673347934, "lat": 24.1998665, "lon": 86.2775869, "tags": {"addr:district": "Giridih", "addr:full": "Pachamba, Giridih", "addr:postcode": "815316", "addr:state": "Jharkhand", "amenity": "hospital", "name": "Dr. Shila Verma Hospital", "source": "Local Knowledge"}}, {"type": "node", "id": 7673347935, "lat": 24.485686, "lon": 86.6905352, "tags": {"addr:district": "Deoghar", "addr:full": "Station Road, Deoghar", "addr:postcode": "814112", "addr:state": "Jharkhand", "amenity": "hospital", "name": "Dr. Chandrakanth Hospital", "source": "Local Knowledge"}}, {"type": "node", "id": 7673347937, "lat": 24.4881506, "lon": 86.6909184, "tags": {"addr:district": "Deoghar", "addr:full": "Castairs Town, Bompas Town, Deoghar", "addr:postcode": "814112", "addr:state": "Jharkhand", "amenity": "hospital", "name": "Shree Ashtavinayak Hospital", "source": "Local Knowledge"}}, {"type": "node", "id": 7673347938, "lat": 24.194923, "lon": 86.285144, "tags": {"addr:district": "Giridih", "addr:full": "Shivpuri Colony, Mohanpur", "addr:postcode": "815316", "addr:state": "Jharkhand", "amenity": "hospital", "name": "City Care Hospital", "source": "Local Knowledge"}}, {"type": "node", "id": 7673347945, "lat": 24.1914454, "lon": 86.3080497, "tags": {"addr:district": "Giridih", "addr:full": "New Barganda, Giridih", "addr:postcode": "815301", "addr:state": "Jharkhand", "amenity": "hospital", "healthcare": "hospital", "name": "Gobardhan Lal Nursing Home", "source": "Local Knowledge"}}, {"type": "node", "id": 8186743504, "lat": 24.1866859, "lon": 86.436916, "tags": {"addr:district": "Giridih", "addr:full": "Gandey", "addr:postcode": "815312", "addr:state": "Jharkhand", "amenity": "hospital", "description": "SubCentre", "healthcare": "centre", "name": "CHC, Gandey", "source": "Local Knowledge"}}, {"type": "node", "id": 9143782397, "lat": 24.1806419, "lon": 86.2827387}, {"type": "node", "id": 9281532507, "lat": 24.1883913, "lon": 86.3036397}, {"type": "node", "id": 9383455285, "lat": 24.1937526, "lon": 86.4273962}, {"type": "node", "id": 9383455286, "lat": 24.1936033, "lon": 86.4276107}, {"type": "node", "id": 9383455287, "lat": 24.1931813, "lon": 86.4274089}, {"type": "node", "id": 9383455288, "lat": 24.1931984, "lon": 86.4273848}, {"type": "node", "id": 9383455289, "lat": 24.1936186, "lon": 86.4273613}, {"type": "node", "id": 9383455290, "lat": 24.1937562, "lon": 86.427364}, {"type": "node", "id": 9604664843, "lat": 24.4846455, "lon": 86.6923691, "tags": {"addr:city": "Deoghar", "addr:postcode": "814112", "amenity": "college", "internet_access": "no", "name": "Bajla Mahila College"}}, {"type": "node", "id": 9709907747, "lat": 24.493319, "lon": 86.6769818}, {"type": "node", "id": 9709907748, "lat": 24.4932872, "lon": 86.6770607}, {"type": "node", "id": 9709907749, "lat": 24.4932253, "lon": 86.6770306}, {"type": "node", "id": 9709907750, "lat": 24.4932571, "lon": 86.6769517}, {"type": "node", "id": 9709907803, "lat": 24.5007735, "lon": 86.6510041}, {"type": "node", "id": 9709907804, "lat": 24.5006661, "lon": 86.6509681}, {"type": "node", "id": 9709907805, "lat": 24.5007175, "lon": 86.650783}, {"type": "node", "id": 9709907806, "lat": 24.5008249, "lon": 86.6508191}, {"type": "node", "id": 9709921656, "lat": 24.4884579, "lon": 86.7001119}, {"type": "node", "id": 9709921657, "lat": 24.4881757, "lon": 86.6994631}, {"type": "node", "id": 9709944106, "lat": 24.4925759, "lon": 86.700502}, {"type": "node", "id": 9709944107, "lat": 24.4921427, "lon": 86.7003196}, {"type": "node", "id": 9709944108, "lat": 24.4922879, "lon": 86.6998489}, {"type": "node", "id": 9709944109, "lat": 24.4923709, "lon": 86.6996478}, {"type": "node", "id": 9709944110, "lat": 24.4923245, "lon": 86.6996048}, {"type": "node", "id": 9710044072, "lat": 24.5055736, "lon": 86.6590266}, {"type": "node", "id": 9710044073, "lat": 24.5055226, "lon": 86.6589871}, {"type": "node", "id": 9710044074, "lat": 24.5055538, "lon": 86.6589384}, {"type": "node", "id": 9710044075, "lat": 24.5056048, "lon": 86.6589779}, {"type": "node", "id": 9711913682, "lat": 24.4981258, "lon": 86.6997701}, {"type": "node", "id": 9711927692, "lat": 24.5063869, "lon": 86.6908437}, {"type": "node", "id": 9711927693, "lat": 24.5063147, "lon": 86.6908397}, {"type": "node", "id": 9711927694, "lat": 24.5063169, "lon": 86.6907915}, {"type": "node", "id": 9711927695, "lat": 24.5063891, "lon": 86.6907955}, {"type": "node", "id": 9712241316, "lat": 24.4610863, "lon": 86.6315063}, {"type": "node", "id": 9712293717, "lat": 24.4610613, "lon": 86.6314953}, {"type": "node", "id": 9712293718, "lat": 24.4610263, "lon": 86.6317988}, {"type": "node", "id": 9712293719, "lat": 24.4610488, "lon": 86.6318056}, {"type": "node", "id": 9712293720, "lat": 24.4610163, "lon": 86.6319526}, {"type": "node", "id": 9712293721, "lat": 24.4607276, "lon": 86.6318482}, {"type": "node", "id": 9712293722, "lat": 24.4607626, "lon": 86.631715}, {"type": "node", "id": 9712293723, "lat": 24.4608314, "lon": 86.6315063, "tags": {"access": "yes", "barrier": "entrance"}}, {"type": "node", "id": 9712293724, "lat": 24.4609214, "lon": 86.6312825}, {"type": "node", "id": 9712293725, "lat": 24.4611113, "lon": 86.6313567}, {"type": "node", "id": 9739471151, "lat": 24.3133639, "lon": 86.6845641}, {"type": "node", "id": 9739471152, "lat": 24.3132899, "lon": 86.684537}, {"type": "node", "id": 9739471153, "lat": 24.3133128, "lon": 86.6844614}, {"type": "node", "id": 9739471154, "lat": 24.3133869, "lon": 86.6844884}, {"type": "node", "id": 9740401119, "lat": 24.2667697, "lon": 86.6421617}, {"type": "node", "id": 9740401120, "lat": 24.2667551, "lon": 86.6422013}, {"type": "node", "id": 9740401121, "lat": 24.2667277, "lon": 86.6421891}, {"type": "node", "id": 9740401122, "lat": 24.2666762, "lon": 86.6423292}, {"type": "node", "id": 9740401123, "lat": 24.2665907, "lon": 86.6422913}, {"type": "node", "id": 9740401124, "lat": 24.2666614, "lon": 86.6420988}, {"type": "node", "id": 9740401125, "lat": 24.265684, "lon": 86.6446986}, {"type": "node", "id": 9740401126, "lat": 24.2656077, "lon": 86.6446855}, {"type": "node", "id": 9740401127, "lat": 24.2656166, "lon": 86.644623}, {"type": "node", "id": 9740401128, "lat": 24.2656929, "lon": 86.6446361}, {"type": "node", "id": 9740421359, "lat": 24.2724614, "lon": 86.6409879}, {"type": "node", "id": 9740421360, "lat": 24.2723831, "lon": 86.6411252}, {"type": "node", "id": 9740421361, "lat": 24.2723353, "lon": 86.6410924}, {"type": "node", "id": 9740421362, "lat": 24.2724136, "lon": 86.6409551}, {"type": "node", "id": 9740421574, "lat": 24.2667513, "lon": 86.6421385}, {"type": "node", "id": 9740421575, "lat": 24.2667466, "lon": 86.6421515}, {"type": "node", "id": 9741512135, "lat": 24.4299122, "lon": 86.423513}, {"type": "node", "id": 9741512136, "lat": 24.4299769, "lon": 86.4235693}, {"type": "node", "id": 9741512137, "lat": 24.4300575, "lon": 86.423635}, {"type": "node", "id": 9741512138, "lat": 24.4301198, "lon": 86.4236833}, {"type": "node", "id": 9741512139, "lat": 24.4301186, "lon": 86.4237879}, {"type": "node", "id": 9741512140, "lat": 24.4300295, "lon": 86.4237919}, {"type": "node", "id": 9741512141, "lat": 24.4299098, "lon": 86.4237651}, {"type": "node", "id": 9741512142, "lat": 24.4296937, "lon": 86.4237088}, {"type": "node", "id": 9741512143, "lat": 24.4298524, "lon": 86.4234593}, {"type": "node", "id": 9741536701, "lat": 24.3622944, "lon": 86.5339827}, {"type": "node", "id": 9741536702, "lat": 24.3622396, "lon": 86.5339701}, {"type": "node", "id": 9741536703, "lat": 24.3622528, "lon": 86.533901}, {"type": "node", "id": 9741536704, "lat": 24.3623076, "lon": 86.5339136}, {"type": "node", "id": 9750005451, "lat": 24.494878, "lon": 86.6861974}, {"type": "node", "id": 9750005452, "lat": 24.4948183, "lon": 86.6861575}, {"type": "node", "id": 9750005453, "lat": 24.4948492, "lon": 86.6861017}, {"type": "node", "id": 9750005454, "lat": 24.4949088, "lon": 86.6861415}, {"type": "node", "id": 9750068925, "lat": 24.5022364, "lon": 86.6957344}, {"type": "node", "id": 9750068926, "lat": 24.5022657, "lon": 86.6956848}, {"type": "node", "id": 9750068927, "lat": 24.5023768, "lon": 86.6956338}, {"type": "node", "id": 9750068931, "lat": 24.4981788, "lon": 86.6991261}, {"type": "node", "id": 9750068945, "lat": 24.5049321, "lon": 86.6972673}, {"type": "node", "id": 9750068946, "lat": 24.5073812, "lon": 86.6983469}, {"type": "node", "id": 9750068947, "lat": 24.5069822, "lon": 86.6965659}, {"type": "node", "id": 9750068948, "lat": 24.507197, "lon": 86.6978788}, {"type": "node", "id": 9755534521, "lat": 24.4870516, "lon": 86.6320657}, {"type": "node", "id": 9755534522, "lat": 24.4870179, "lon": 86.6321358}, {"type": "node", "id": 9755534523, "lat": 24.4869627, "lon": 86.6321038}, {"type": "node", "id": 9755534524, "lat": 24.4869964, "lon": 86.6320337}, {"type": "node", "id": 9755534737, "lat": 24.5136044, "lon": 86.6379333}, {"type": "node", "id": 9755534738, "lat": 24.513585, "lon": 86.63798}, {"type": "node", "id": 9755534739, "lat": 24.5135136, "lon": 86.6379443}, {"type": "node", "id": 9755534740, "lat": 24.513533, "lon": 86.6378976}, {"type": "node", "id": 10299395226, "lat": 24.3191248, "lon": 86.6820287}, {"type": "node", "id": 10299395227, "lat": 24.3190974, "lon": 86.6820992}, {"type": "node", "id": 10299395228, "lat": 24.3190382, "lon": 86.6820715}, {"type": "node", "id": 10299395229, "lat": 24.3190656, "lon": 86.682001}, {"type": "node", "id": 10301241142, "lat": 24.3049502, "lon": 86.6645146}, {"type": "node", "id": 10301241143, "lat": 24.3049803, "lon": 86.6645259}, {"type": "node", "id": 10301241144, "lat": 24.3049664, "lon": 86.6645703}, {"type": "node", "id": 10301241145, "lat": 24.3049172, "lon": 86.6645519}, {"type": "node", "id": 10301241146, "lat": 24.3049313, "lon": 86.6645066}, {"type": "node", "id": 10301241147, "lat": 24.3049137, "lon": 86.6645}, {"type": "node", "id": 10301241148, "lat": 24.3049264, "lon": 86.6644592}, {"type": "node", "id": 10301241149, "lat": 24.3049631, "lon": 86.6644729}, {"type": "node", "id": 10301265446, "lat": 24.2846809, "lon": 86.6133527}, {"type": "node", "id": 10301265447, "lat": 24.2846278, "lon": 86.6133335}, {"type": "node", "id": 10301265448, "lat": 24.2846513, "lon": 86.6132555}, {"type": "node", "id": 10301265449, "lat": 24.2847043, "lon": 86.6132747}, {"type": "node", "id": 10301265454, "lat": 24.2634052, "lon": 86.6451158}, {"type": "node", "id": 10301265455, "lat": 24.2633416, "lon": 86.6452458}, {"type": "node", "id": 10301265456, "lat": 24.2632536, "lon": 86.6452123}, {"type": "node", "id": 10301265457, "lat": 24.2631668, "lon": 86.6453277}, {"type": "node", "id": 10301265458, "lat": 24.2631534, "lon": 86.6454202}, {"type": "node", "id": 10301265459, "lat": 24.2630531, "lon": 86.6454752}, {"type": "node", "id": 10301265460, "lat": 24.2629895, "lon": 86.6453545}, {"type": "node", "id": 10301265461, "lat": 24.263036, "lon": 86.6453169}, {"type": "node", "id": 10301265462, "lat": 24.2631252, "lon": 86.6452512}, {"type": "node", "id": 10301265463, "lat": 24.2631583, "lon": 86.6451775}, {"type": "node", "id": 10301265464, "lat": 24.2630788, "lon": 86.645156}, {"type": "node", "id": 10301265465, "lat": 24.2629687, "lon": 86.645211}, {"type": "node", "id": 10301265466, "lat": 24.2629027, "lon": 86.6451399}, {"type": "node", "id": 10301265467, "lat": 24.2630947, "lon": 86.644928}, {"type": "node", "id": 10301265468, "lat": 24.2633808, "lon": 86.6451037}, {"type": "node", "id": 10301305876, "lat": 24.2989363, "lon": 86.6421639}, {"type": "node", "id": 10301305877, "lat": 24.2988552, "lon": 86.6421991}, {"type": "node", "id": 10301305878, "lat": 24.2988256, "lon": 86.6421172}, {"type": "node", "id": 10301305879, "lat": 24.2989067, "lon": 86.6420819}, {"type": "node", "id": 11903945567, "lat": 24.505111, "lon": 86.6816188}, {"type": "node", "id": 11903945568, "lat": 24.50514, "lon": 86.6817887}, {"type": "node", "id": 11903973803, "lat": 24.505, "lon": 86.6811928}, {"type": "node", "id": 11903973804, "lat": 24.5049661, "lon": 86.6814312}, {"type": "node", "id": 11903973805, "lat": 24.5052752, "lon": 86.6814949}, {"type": "node", "id": 11903973806, "lat": 24.5053074, "lon": 86.6812613}, {"type": "node", "id": 11903975569, "lat": 24.5052334, "lon": 86.6818028}, {"type": "node", "id": 11903975570, "lat": 24.5052623, "lon": 86.6815763}, {"type": "node", "id": 11903975571, "lat": 24.5051174, "lon": 86.681548}, {"type": "node", "id": 12596271550, "lat": 24.4902427, "lon": 86.6947847, "tags": {"name": "vioray mall", "shop": "supermarket"}}, {"type": "node", "id": 12596274184, "lat": 24.4986029, "lon": 86.6894106, "tags": {"amenity": "place_of_worship", "name": "hanuman mandir"}}, {"type": "node", "id": 12596280327, "lat": 24.4909891, "lon": 86.6816643, "tags": {"amenity": "cafe", "name": "dominos"}}, {"type": "node", "id": 12596282120, "lat": 24.4922175, "lon": 86.6864052, "tags": {"name": "v mart", "shop": "supermarket"}}, {"type": "node", "id": 12596282121, "lat": 24.4923014, "lon": 86.6859114, "tags": {"name": "v2", "shop": "supermarket"}}, {"type": "node", "id": 12596283932, "lat": 24.4961488, "lon": 86.6870641, "tags": {"amenity": "cafe", "name": "TTF"}}, {"type": "node", "id": 12596291527, "lat": 24.4968436, "lon": 86.6845543, "tags": {"amenity": "cafe", "name": "mba chaiwala", "operational_status": "closed", "outdoor_seating": "no"}}, {"type": "node", "id": 12596292505, "lat": 24.491439, "lon": 86.6876405, "tags": {"amenity": "cafe", "name": "bakery shop"}}, {"type": "node", "id": 12596295738, "lat": 24.4988797, "lon": 86.6860216, "tags": {"amenity": "place_of_worship", "name": "durga mandir"}}, {"type": "node", "id": 12596301247, "lat": 24.4904843, "lon": 86.6948777, "tags": {"amenity": "bank", "name": "lic center"}}, {"type": "node", "id": 12596303604, "lat": 24.4973572, "lon": 86.6854971, "tags": {"amenity": "place_of_worship", "name": "masjid"}}, {"type": "node", "id": 12596303663, "lat": 24.4985038, "lon": 86.6921947, "tags": {"name": "khushi store", "shop": "supermarket"}}, {"type": "node", "id": 12596304989, "lat": 24.4982091, "lon": 86.6853046, "tags": {"amenity": "hospital", "healthcare": "hospital", "name": "medical store"}}, {"type": "node", "id": 12596309518, "lat": 24.4969584, "lon": 86.6853643, "tags": {"amenity": "hospital", "healthcare": "hospital", "name": "skin clinic"}}, {"type": "node", "id": 13298758863, "lat": 24.184893, "lon": 86.2834106}, {"type": "node", "id": 13298758864, "lat": 24.1851952, "lon": 86.2929238}, {"type": "node", "id": 13298758865, "lat": 24.1807758, "lon": 86.2888556}, {"type": "node", "id": 13298758866, "lat": 24.1805114, "lon": 86.2824893}, {"type": "node", "id": 13298758867, "lat": 24.1821828, "lon": 86.2807503}, {"type": "node", "id": 13298758868, "lat": 24.1848151, "lon": 86.2812324}, {"type": "node", "id": 13321490325, "lat": 24.4440233, "lon": 86.6419802, "tags": {"addr:city": "deoghar", "addr:district": "deoghar", "addr:housenumber": "81", "addr:postcode": "814152", "addr:street": "near Shivram mandir bhojpur, gramin bank bhojpur", "amenity": "bank", "atm": "yes", "drive_through": "yes", "name": "\u0917\u094d\u0930\u093e\u0939\u0915 \u0938\u0947\u0935\u093e \u0915\u0947\u0902\u0926\u094d\u0930 (\u0936\u0930\u094d\u092e\u093e \u0921\u093f\u091c\u093f\u091f\u0932 \u0938\u0947\u0902\u091f\u0930) common service centre", "opening_hours": "Mo-Su 10:00-22:00", "opening_hours:drive_through": "Mo-Su 06:30-00:00", "operator": "Ramlal sharma"}}, {"type": "way", "id": 154382123, "nodes": [1669263106, 1669263096, 9709944110, 9709944109, 9709944108, 1669263091, 9709944107, 9709944106, 1669263098, 1669263101, 1669263103, 1669263106], "tags": {"alt_name": "Baidyan\u0101th Dh\u0101m", "alt_name:en": "Baidyanath Dham", "amenity": "place_of_worship", "gns:dsg_code": "TMPL", "gns:dsg_string": "temple(s)", "gns:id": "-2089728", "gns:uni": "-2901888;-2901887", "name": "Baidyanathdham", "note:GNS": "GNS coordinates 550m northeast from here", "place_of_worship": "jyotirlinga", "religion": "hindu", "short_name": "Baidyan\u0101th", "short_name:en": "Baidyanath", "source:GNSdata": "geonames.nga.mil(GNS)-country file (20220324))", "source:alt_name": "geonames.nga.mil(GNS)", "source:short_name": "geonames.nga.mil(GNS)", "wikidata": "Q1089897", "wikimedia_commons": "Category:Baidyanath Jyotirlinga, Deoghar", "wikipedia": "en:Baidyanath Temple"}}, {"type": "way", "id": 397964130, "nodes": [4007361426, 4007361427, 4007361428, 4007361429, 4007361430, 4007361431, 4007361426], "tags": {"amenity": "place_of_worship", "religion": "hindu"}}, {"type": "way", "id": 397964136, "nodes": [4007361565, 4007361566, 4007361567, 4007361568, 4007361569, 4007361570, 4007361580, 4007361571, 4007361572, 9711913682, 4007361573, 9750068931, 4007361574, 4007361575, 4007361579, 4007361576, 4007361577, 4007361578, 4007361565], "tags": {"amenity": "university"}}, {"type": "way", "id": 397964139, "nodes": [4007361593, 4007361594, 4007361595, 4007361596, 4007361597, 4007361598, 4007361599, 4007361600, 4007361601, 4007361602, 4007361603, 4007361604, 4007361605, 4007361606, 4007361607, 4007361608, 4007361609, 4007361610, 4007361611, 4007361612, 4269583580, 4007361593], "tags": {"addr:city": "Deoghar", "amenity": "college", "name": "Deoghar Utkarsh College"}}, {"type": "way", "id": 397964140, "nodes": [4007361613, 4007361622, 4007361626, 4007361624, 4007361625, 4007361623, 9750068927, 9750068926, 9750068925, 4007361614, 9750068945, 4007361615, 9750068946, 9750068948, 4007361616, 9750068947, 4007361613], "tags": {"addr:city": "Deoghar", "amenity": "college", "name": "Ramakrishna Mission Vidyapith", "wikidata": "Q7288818", "wikipedia": "en:Ramakrishna Mission Vidyapith, Deoghar"}}, {"type": "way", "id": 397964142, "nodes": [4007361627, 4007361628, 4007361629, 4007361630, 4007361631, 4007361632, 4007361633, 4007361634, 4007361635, 4007361636, 4007361637, 4007361627], "tags": {"leisure": "park"}}, {"type": "way", "id": 397969006, "nodes": [4007404310, 4007404311, 9709921656, 4007404312, 4007404313, 9709921657, 4007404310], "tags": {"amenity": "bus_station"}}, {"type": "way", "id": 815234304, "nodes": [7614829283, 9281532507, 7614829284, 7614833585, 7614833586, 7614829283], "tags": {"leisure": "park", "name": "PWD Field"}}, {"type": "way", "id": 1017320244, "nodes": [9383455290, 9383455289, 9383455288, 9383455287, 9383455286, 9383455285, 9383455290], "tags": {"amenity": "place_of_worship", "fixme": "chck religon", "religion": "hindu", "source": "Esri World Imagery"}}, {"type": "way", "id": 1056704119, "nodes": [9709907750, 9709907749, 9709907748, 9709907747, 9709907750], "tags": {"amenity": "place_of_worship", "building": "temple", "fixme": "check religion on ground", "religion": "hindu", "source": "Esri World Imagery"}}, {"type": "way", "id": 1056704132, "nodes": [9709907806, 9709907805, 9709907804, 9709907803, 9709907806], "tags": {"amenity": "place_of_worship", "building": "temple", "religion": "hindu", "source": "Esri World Imagery"}}, {"type": "way", "id": 1056719160, "nodes": [9710044075, 9710044074, 9710044073, 9710044072, 9710044075], "tags": {"amenity": "place_of_worship", "building": "temple", "religion": "hindu", "source": "Esri World Imagery"}}, {"type": "way", "id": 1056935171, "nodes": [9711927695, 9711927694, 9711927693, 9711927692, 9711927695], "tags": {"amenity": "place_of_worship", "building": "temple", "religion": "hindu", "source": "Esri World Imagery"}}, {"type": "way", "id": 1056990806, "nodes": [9712293725, 9712293724, 9712293723, 9712293722, 9712293721, 9712293720, 9712293719, 9712293718, 9712293717, 9712241316, 9712293725], "tags": {"amenity": "place_of_worship", "barrier": "wall", "fixme": "check religion on ground", "religion": "hindu", "source": "Esri World Imagery"}}, {"type": "way", "id": 1060067310, "nodes": [9739471154, 9739471153, 9739471152, 9739471151, 9739471154], "tags": {"amenity": "place_of_worship", "building": "temple", "fixme": "chck religon on ground", "religion": "hindu", "source": "Esri World Imagery"}}, {"type": "way", "id": 1060160701, "nodes": [9740421362, 9740421361, 9740421360, 9740421359, 9740421362], "tags": {"amenity": "place_of_worship", "building": "temple", "fixme": "check religion (on ground)", "religion": "hindu", "source": "Esri World Imagery"}}, {"type": "way", "id": 1060160754, "nodes": [9740401124, 9740401123, 9740401122, 9740401121, 9740401120, 9740401119, 9740421575, 9740421574, 9740401124], "tags": {"amenity": "place_of_worship", "building": "church", "fixme": "check denomination (on ground)", "religion": "christian", "source": "Esri World Imagery"}}, {"type": "way", "id": 1060160755, "nodes": [9740401128, 9740401127, 9740401126, 9740401125, 9740401128], "tags": {"amenity": "place_of_worship", "building": "temple", "fixme": "check religion (on ground)", "religion": "hindu", "source": "Esri World Imagery"}}, {"type": "way", "id": 1060280714, "nodes": [9741512143, 9741512142, 9741512141, 9741512140, 9741512139, 9741512138, 9741512137, 9741512136, 9741512135, 9741512143], "tags": {"amenity": "place_of_worship", "barrier": "wall", "fixme": "chck religon on ground", "religion": "hindu", "source": "Esri World Imagery"}}, {"type": "way", "id": 1060283944, "nodes": [9741536704, 9741536703, 9741536702, 9741536701, 9741536704], "tags": {"amenity": "place_of_worship", "building": "temple", "religion": "hindu", "source": "Esri World Imagery"}}, {"type": "way", "id": 1061177189, "nodes": [9750005454, 9750005453, 9750005452, 9750005451, 9750005454], "tags": {"amenity": "place_of_worship", "building": "temple", "fixme": "check religon on ground", "religion": "hindu", "source": "Esri World Imagery"}}, {"type": "way", "id": 1061857791, "nodes": [9755534524, 9755534523, 9755534522, 9755534521, 9755534524], "tags": {"amenity": "place_of_worship", "building": "temple", "fixme": "check religon on ground", "religion": "hindu", "source": "Esri World Imagery"}}, {"type": "way", "id": 1061857810, "nodes": [9755534737, 9755534740, 9755534739, 9755534738, 9755534737], "tags": {"amenity": "place_of_worship", "building": "temple", "fixme": "check religon on ground", "religion": "hindu", "source": "Esri World Imagery"}}, {"type": "way", "id": 1126366437, "nodes": [10299395229, 10299395228, 10299395227, 10299395226, 10299395229], "tags": {"amenity": "place_of_worship", "building": "temple", "fixme": "check religion", "religion": "hindu", "source": "Esri World imagery (retreived 01/2023)"}}, {"type": "way", "id": 1126557948, "nodes": [10301265449, 10301265448, 10301265447, 10301265446, 10301265449], "tags": {"amenity": "place_of_worship", "building": "temple", "fixme": "check religion", "religion": "hindu", "source": "Esri World imagery (retreived 01/2023)"}}, {"type": "way", "id": 1126557950, "nodes": [10301265468, 10301265467, 10301265466, 10301265465, 10301265464, 10301265463, 10301265462, 10301265461, 10301265460, 10301265459, 10301265458, 10301265457, 10301265456, 10301265455, 10301265454, 10301265468], "tags": {"amenity": "place_of_worship", "fixme": "check religion", "religion": "hindu", "source": "Esri World imagery (retreived 01/2023)"}}, {"type": "way", "id": 1126562752, "nodes": [10301241149, 10301241148, 10301241147, 10301241146, 10301241145, 10301241144, 10301241143, 10301241142, 10301241149], "tags": {"amenity": "place_of_worship", "building": "temple", "religion": "hindu", "source": "Esri World imagery (retreived 01/2023)"}}, {"type": "way", "id": 1126562760, "nodes": [10301305879, 10301305878, 10301305877, 10301305876, 10301305879], "tags": {"amenity": "place_of_worship", "building": "temple", "religion": "hindu", "source": "Esri World imagery (retreived 01/2023)"}}, {"type": "way", "id": 1282834745, "nodes": [11903945567, 11903945568, 11903975569, 11903975570, 11903975571, 11903945567], "tags": {"addr:street": "Doon Street Nandan Pahar", "amenity": "school", "name": "Doon Public School, nandan pahad Deoghar"}}, {"type": "way", "id": 1282834771, "nodes": [11903973806, 11903973805, 11903973804, 11903973803, 11903973806], "tags": {"addr:street": "Doon Street Nandan Pahar", "amenity": "school", "name": "Doon Public School Administrative block, nandan pahad Deoghar"}}, {"type": "way", "id": 1449940326, "nodes": [13298758863, 13298758864, 13298758865, 9143782397, 13298758866, 13298758867, 13298758868, 13298758863], "tags": {"amenity": "hospital", "healthcare": "hospital"}}]}