{"version": 0.6, "generator": "Overpass API 0.7.62.11 87bfad18", "osm3s": {"timestamp_osm_base": "2026-04-24T05:34:05Z", "copyright": "The data included in this document is from www.openstreetmap.org. The data is made available under ODbL."}, "elements": [{"type": "node", "id": 5746999357, "lat": 18.8123824, "lon": 84.2455918}, {"type": "node", "id": 5746999358, "lat": 18.8124494, "lon": 84.2455511}, {"type": "node", "id": 5746999359, "lat": 18.8125348, "lon": 84.2457422}, {"type": "node", "id": 5746999360, "lat": 18.8124796, "lon": 84.2457811}, {"type": "node", "id": 5746999395, "lat": 18.8117019, "lon": 84.2440967}, {"type": "node", "id": 5746999396, "lat": 18.81168, "lon": 84.2441815}, {"type": "node", "id": 5746999397, "lat": 18.8115561, "lon": 84.244146}, {"type": "node", "id": 5746999398, "lat": 18.8115765, "lon": 84.244049}, {"type": "node", "id": 5746999421, "lat": 18.8115166, "lon": 84.2449614}, {"type": "node", "id": 5746999422, "lat": 18.8115553, "lon": 84.2449859}, {"type": "node", "id": 5746999423, "lat": 18.8114934, "lon": 84.2450583}, {"type": "node", "id": 5746999424, "lat": 18.811468, "lon": 84.2450233}, {"type": "node", "id": 5751334155, "lat": 18.8128746, "lon": 84.2461885}, {"type": "node", "id": 5751334156, "lat": 18.8129256, "lon": 84.2461367}, {"type": "node", "id": 5751334157, "lat": 18.8130189, "lon": 84.2461296}, {"type": "node", "id": 5751334158, "lat": 18.8130305, "lon": 84.2461581}, {"type": "node", "id": 5751334159, "lat": 18.8129439, "lon": 84.2462577}, {"type": "node", "id": 5751334172, "lat": 18.8137801, "lon": 84.2470459}, {"type": "node", "id": 5751334173, "lat": 18.8138387, "lon": 84.247083}, {"type": "node", "id": 5751334174, "lat": 18.8136678, "lon": 84.2472883}, {"type": "node", "id": 5751334175, "lat": 18.813626, "lon": 84.2472653}, {"type": "node", "id": 5772719275, "lat": 18.8092055, "lon": 84.2443918}, {"type": "node", "id": 5772719276, "lat": 18.8090522, "lon": 84.2443553}, {"type": "node", "id": 5772719277, "lat": 18.808975, "lon": 84.2446509}, {"type": "node", "id": 5772719278, "lat": 18.8091389, "lon": 84.2446867}, {"type": "node", "id": 6758716881, "lat": 18.943505, "lon": 84.5853496, "tags": {"addr:district": "Srikakulam", "addr:full": "Sompeta, rict Srikakulam ,", "addr:postcode": "532284", "addr:state": "Andhra Pradesh", "amenity": "hospital", "check_date": "2024-10-06", "name": "Arogyavaram Eye Hospital and Contact Lens Clinic", "source": "OpenGovernmentData"}}, {"type": "node", "id": 6759045344, "lat": 18.8901258, "lon": 84.2691845, "tags": {"addr:city": "Gandahati", "addr:postcode": "761212", "leisure": "park", "name": "Gandahati Ecological Park", "operator": "Odisha Government"}}, {"type": "node", "id": 6761040427, "lat": 18.9442826, "lon": 84.5837831, "tags": {"addr:district": "Srikakulam", "addr:full": "College Road, Sompeta", "addr:postcode": "532284", "addr:state": "Andhra Pradesh", "amenity": "hospital", "name": "Mahalaxmi Nursing Home", "source": "OpenGovernmentData"}}, {"type": "node", "id": 6768432505, "lat": 18.945239, "lon": 84.5860402, "tags": {"addr:district": "Srikakulam", "addr:full": "D.No: 14-222 , Cheekati Bungalow Street", "addr:postcode": "532284", "addr:state": "Andhra Pradesh", "amenity": "hospital", "name": "Annapoorna Hospital", "source": "OpenGovernmentData"}}, {"type": "node", "id": 6771475308, "lat": 18.9641913, "lon": 84.3695671, "tags": {"amenity": "place_of_worship", "name": "Kunti Temple", "religion": "hindu"}}, {"type": "node", "id": 7079057908, "lat": 19.1291141, "lon": 84.5763241, "tags": {"addr:district": "Ganjam", "addr:full": "New Bus Stand, Patrapur", "addr:postcode": "761004", "addr:state": "Odisha", "amenity": "clinic", "name": "Sri Sathya Sai Nursing Home, Ganjam", "source": "OpenGovernmentData"}}, {"type": "node", "id": 7115980672, "lat": 18.7705786, "lon": 84.1831558, "tags": {"addr:block": "Palasa", "addr:district": "Srikakulam", "addr:full": "Near Sc Street, Meliaputti", "addr:postcode": "532216", "addr:state": "Andhra Pradesh", "addr:street": "Opp-Zphs", "addr:subdistrict": "Meliaputti Mandal", "amenity": "hospital", "name": "Government Hospital, Chapara", "source": "OpenGovernmentData"}}, {"type": "node", "id": 7115980677, "lat": 18.947865, "lon": 84.584178, "tags": {"addr:district": "Srikakulam", "addr:full": "Hospital Junction, Sompeta", "addr:postcode": "532284", "addr:state": "Andhra Pradesh", "addr:street": "Main Road", "addr:subdistrict": "Sompeta Mandal", "amenity": "hospital", "check_date": "2024-10-05", "contact:phone": "8947234350", "name": "Government Hospital,Sompeta", "source": "OpenGovernmentData"}}, {"type": "node", "id": 7710220499, "lat": 19.0043256, "lon": 84.2304492, "tags": {"addr:district": "Gajapati", "addr:full": "Mandalasahi - Loba Road, Raising", "addr:postcode": "761212", "addr:state": "Odhisa", "amenity": "hospital", "name": "Dhanwantari Hospital", "source": "Local Knowledge"}}, {"type": "node", "id": 9424945350, "lat": 18.8144091, "lon": 84.2335493, "tags": {"addr:postcode": "761210", "addr:street": "Uppalada Gosani Road", "amenity": "place_of_worship", "name": "\u0b36\u0b3f\u0b2c \u0b2e\u0b28\u0b4d\u0b26\u0b3f\u0b30", "religion": "hindu"}}, {"type": "node", "id": 9441329414, "lat": 18.9668959, "lon": 84.3684974, "tags": {"amenity": "place_of_worship", "name": "Unknown Temple", "religion": "hindu"}}, {"type": "node", "id": 9441329435, "lat": 18.9672962, "lon": 84.3655394, "tags": {"amenity": "place_of_worship", "name": "Bhima Temple", "religion": "hindu"}}, {"type": "node", "id": 9441329598, "lat": 18.9675708, "lon": 84.3683368, "tags": {"amenity": "place_of_worship", "name": "Parsuram Statue", "religion": "hindu"}}, {"type": "node", "id": 10831852305, "lat": 18.9075706, "lon": 84.4536521, "tags": {"amenity": "bus_station", "bus": "yes", "name": "Cheepi Bus Stop", "public_transport": "station"}}, {"type": "node", "id": 10831852306, "lat": 18.9124481, "lon": 84.4520361, "tags": {"amenity": "bus_station", "bus": "yes", "name": "Udayachandrapuram Bus Stop", "public_transport": "station"}}, {"type": "node", "id": 10831852307, "lat": 18.8700971, "lon": 84.4615239, "tags": {"amenity": "bus_station", "bus": "yes", "name": "Mandasa Bus Stop", "public_transport": "station"}}, {"type": "node", "id": 10831852877, "lat": 18.9472381, "lon": 84.5834564, "tags": {"amenity": "bus_station", "bus": "yes", "name": "APSRTC Bus Station , Sompeta", "operator": "Government", "public_transport": "station", "wheelchair": "limited"}}, {"type": "node", "id": 10831852880, "lat": 18.9871732, "lon": 84.5888948, "tags": {"amenity": "bus_station", "bus": "yes", "name": "Kanchili Bypass Bus Stop", "public_transport": "station"}}, {"type": "node", "id": 10831852881, "lat": 18.9870697, "lon": 84.5894849, "tags": {"amenity": "bus_station", "bus": "yes", "name": "Kanchili Bypass Bus Stop", "public_transport": "station"}}, {"type": "node", "id": 10855691682, "lat": 18.7689595, "lon": 84.2002657, "tags": {"amenity": "bus_station", "bus": "yes", "name": "Pattupuram Junction Bus Stop", "public_transport": "station"}}, {"type": "node", "id": 11021742113, "lat": 19.1298894, "lon": 84.6034956, "tags": {"amenity": "bus_station", "bus": "yes", "name": "Boddavada Bus Stop", "public_transport": "station"}}, {"type": "node", "id": 11021742114, "lat": 19.122105, "lon": 84.6172503, "tags": {"amenity": "bus_station", "bus": "yes", "name": "Koligam Bus Stop", "public_transport": "station"}}, {"type": "node", "id": 11372659815, "lat": 18.7821513, "lon": 84.2151179, "tags": {"amenity": "bus_station", "bus": "yes", "name": "Pedda Lakshmipuram Bus Stop", "public_transport": "station"}}, {"type": "node", "id": 11372691626, "lat": 18.7438954, "lon": 84.1863948, "tags": {"amenity": "bus_station", "bus": "yes", "name": "Jalaka Lingupuram Bus Stp", "public_transport": "station"}}, {"type": "node", "id": 11470091151, "lat": 19.0649166, "lon": 84.5747213, "tags": {"amenity": "bus_station", "bus": "yes", "name": "Dolagovindapuram Bus Stop", "public_transport": "station"}}, {"type": "node", "id": 11470091527, "lat": 18.9206678, "lon": 84.4484701, "tags": {"amenity": "bus_station", "bus": "yes", "name": "Padmapuram Bus Stop", "public_transport": "station"}}, {"type": "node", "id": 11470404620, "lat": 18.8949765, "lon": 84.3954376, "tags": {"amenity": "bus_station", "bus": "yes", "name": "Singupuram Bus Stop", "public_transport": "station"}}, {"type": "node", "id": 11470404683, "lat": 18.8572809, "lon": 84.4328638, "tags": {"amenity": "bus_station", "bus": "yes", "name": "Kumbigam Bus Stop", "public_transport": "station"}}, {"type": "node", "id": 11917090096, "lat": 19.0113467, "lon": 84.4320413, "tags": {"amenity": "bus_station", "bus": "yes", "name": "Ambatikhambaram Bus Stop", "public_transport": "station"}}, {"type": "node", "id": 11917097241, "lat": 18.9979439, "lon": 84.4425914, "tags": {"amenity": "bus_station", "bus": "yes", "name": "Kuladi Bus Stop", "public_transport": "station"}}, {"type": "node", "id": 11917097242, "lat": 18.9946943, "lon": 84.457874, "tags": {"amenity": "bus_station", "bus": "yes", "name": "Pedda Kosta Bus Stop", "public_transport": "station"}}, {"type": "node", "id": 11917097243, "lat": 18.9681306, "lon": 84.4754052, "tags": {"amenity": "bus_station", "bus": "yes", "name": "Gaudaguranti Bus Stop", "public_transport": "station"}}, {"type": "node", "id": 11917097244, "lat": 18.9799547, "lon": 84.4717577, "tags": {"amenity": "bus_station", "bus": "yes", "name": "Badupuram Bus Stop", "public_transport": "station"}}, {"type": "node", "id": 11943712549, "lat": 18.8801773, "lon": 84.4821301, "tags": {"amenity": "bus_station", "bus": "yes", "name": "Siddigam Bus Stop", "public_transport": "station"}}, {"type": "node", "id": 11943751917, "lat": 18.8811955, "lon": 84.4585922}, {"type": "node", "id": 11943751918, "lat": 18.8811044, "lon": 84.4595171}, {"type": "node", "id": 11943751919, "lat": 18.8796425, "lon": 84.459314}, {"type": "node", "id": 11943751920, "lat": 18.8800269, "lon": 84.4583944}, {"type": "node", "id": 11943751921, "lat": 18.8779552, "lon": 84.4606926, "tags": {"amenity": "bus_station", "bus": "yes", "name": "Mandasa College Road Bus Stop", "public_transport": "station"}}, {"type": "node", "id": 12102865284, "lat": 18.929086, "lon": 84.5637298}, {"type": "node", "id": 12102865285, "lat": 18.9290346, "lon": 84.564085}, {"type": "node", "id": 12102865286, "lat": 18.9289458, "lon": 84.5640436}, {"type": "node", "id": 12102865287, "lat": 18.9289693, "lon": 84.563705}, {"type": "node", "id": 12753716157, "lat": 18.8247405, "lon": 84.3535718, "tags": {"amenity": "pharmacy", "shop": "chemist"}}, {"type": "node", "id": 13516762047, "lat": 18.8798154, "lon": 84.4178534}, {"type": "node", "id": 13516762048, "lat": 18.8796765, "lon": 84.4183476}, {"type": "node", "id": 13516762049, "lat": 18.8797141, "lon": 84.4185532}, {"type": "node", "id": 13516762050, "lat": 18.8796961, "lon": 84.4186535}, {"type": "node", "id": 13516762051, "lat": 18.8787151, "lon": 84.4183856}, {"type": "node", "id": 13516762052, "lat": 18.8785516, "lon": 84.4182837}, {"type": "node", "id": 13516762053, "lat": 18.8787315, "lon": 84.4175286}, {"type": "node", "id": 13657750871, "lat": 19.0926715, "lon": 84.6239698, "tags": {"amenity": "school", "education": "school", "name": "MPP School , Kotha Sasanam"}}, {"type": "node", "id": 13657750872, "lat": 19.0930448, "lon": 84.6233353}, {"type": "node", "id": 13657750873, "lat": 19.0927584, "lon": 84.6241558}, {"type": "node", "id": 13657750874, "lat": 19.0925894, "lon": 84.624138}, {"type": "node", "id": 13657750875, "lat": 19.0926879, "lon": 84.623713}, {"type": "node", "id": 13657750876, "lat": 19.0924932, "lon": 84.6236727}, {"type": "node", "id": 13657750877, "lat": 19.0924988, "lon": 84.6232702}, {"type": "node", "id": 13657789119, "lat": 19.0952883, "lon": 84.6278717}, {"type": "node", "id": 13657789120, "lat": 19.0952772, "lon": 84.6282343}, {"type": "node", "id": 13657789121, "lat": 19.0948382, "lon": 84.628201}, {"type": "node", "id": 13657789122, "lat": 19.0948734, "lon": 84.6278227}, {"type": "node", "id": 13703003344, "lat": 18.9968323, "lon": 84.5625191}, {"type": "node", "id": 13703003345, "lat": 18.9967755, "lon": 84.5632315}, {"type": "node", "id": 13703003346, "lat": 18.99667, "lon": 84.5633917}, {"type": "node", "id": 13703003347, "lat": 18.9964049, "lon": 84.5635691}, {"type": "node", "id": 13703003348, "lat": 18.9960667, "lon": 84.5633231}, {"type": "node", "id": 13703003349, "lat": 18.9960072, "lon": 84.5628825}, {"type": "node", "id": 13703003350, "lat": 18.9958232, "lon": 84.5627595}, {"type": "node", "id": 13703003351, "lat": 18.9957394, "lon": 84.5619813}, {"type": "node", "id": 13703003352, "lat": 18.9963805, "lon": 84.5620785}, {"type": "node", "id": 13703015772, "lat": 18.9537479, "lon": 84.5848348}, {"type": "node", "id": 13703015773, "lat": 18.9538993, "lon": 84.5848668}, {"type": "node", "id": 13703015774, "lat": 18.9538555, "lon": 84.5850801}, {"type": "node", "id": 13703015775, "lat": 18.9537984, "lon": 84.5852792}, {"type": "node", "id": 13703015776, "lat": 18.9533982, "lon": 84.5851726}, {"type": "node", "id": 13703015777, "lat": 18.951932, "lon": 84.5847992}, {"type": "node", "id": 13703015778, "lat": 18.9521405, "lon": 84.5840063}, {"type": "node", "id": 13703015779, "lat": 18.9537177, "lon": 84.5846605}, {"type": "node", "id": 13703015780, "lat": 18.9539531, "lon": 84.5838748}, {"type": "node", "id": 13703015781, "lat": 18.9538455, "lon": 84.584657}, {"type": "node", "id": 13703015782, "lat": 18.9521775, "lon": 84.5838961}, {"type": "node", "id": 13703015783, "lat": 18.9520463, "lon": 84.5828685}, {"type": "node", "id": 13703015784, "lat": 18.9526819, "lon": 84.582513}, {"type": "node", "id": 13703015785, "lat": 18.9526685, "lon": 84.5835014}, {"type": "node", "id": 13737559826, "lat": 18.9501541, "lon": 84.5839935}, {"type": "node", "id": 13737559827, "lat": 18.950192, "lon": 84.5846467}, {"type": "node", "id": 13737559828, "lat": 18.9502445, "lon": 84.5849887}, {"type": "node", "id": 13737559829, "lat": 18.9500405, "lon": 84.5849486}, {"type": "node", "id": 13737559830, "lat": 18.9498423, "lon": 84.584924}, {"type": "node", "id": 13737559831, "lat": 18.9495655, "lon": 84.5848932}, {"type": "node", "id": 13737559832, "lat": 18.9492246, "lon": 84.5848161}, {"type": "node", "id": 13737559833, "lat": 18.9489535, "lon": 84.5847145}, {"type": "node", "id": 13737559834, "lat": 18.9489331, "lon": 84.584622}, {"type": "node", "id": 13737559835, "lat": 18.9487175, "lon": 84.5845265}, {"type": "node", "id": 13737559836, "lat": 18.9487088, "lon": 84.5844341}, {"type": "node", "id": 13737559837, "lat": 18.9487583, "lon": 84.5840274}, {"type": "node", "id": 13737559838, "lat": 18.9490818, "lon": 84.5840397}, {"type": "node", "id": 13737559839, "lat": 18.9494664, "lon": 84.5840212}, {"type": "node", "id": 13737559840, "lat": 18.9498219, "lon": 84.5840274}, {"type": "node", "id": 13737559841, "lat": 18.9499939, "lon": 84.5840089}, {"type": "node", "id": 13737559842, "lat": 18.9495888, "lon": 84.5844403, "tags": {"amenity": "school", "education": "school", "name": "High School Ground SPT"}}, {"type": "way", "id": 606052040, "nodes": [5746999357, 5746999358, 5746999359, 5746999360, 5746999357], "tags": {"addr:street": "Uppalada Gosani Road", "amenity": "restaurant", "building": "yes", "capacity": "30", "name": "hotel", "opening_hours": "24/7", "outdoor_seating": "yes", "takeaway": "no"}}, {"type": "way", "id": 606052044, "nodes": [5746999395, 5746999396, 5746999397, 5746999398, 5746999395], "tags": {"amenity": "bank", "atm": "yes", "building": "yes", "drive_through": "yes", "name": "panjab natioanl bank", "opening_hours": "24/7", "operator": "5"}}, {"type": "way", "id": 606052050, "nodes": [5746999421, 5746999422, 5746999423, 5746999424, 5746999421], "tags": {"addr:street": "Uppalada Gosani Road", "amenity": "place_of_worship", "building": "yes", "name": "hanumam temple", "religion": "hindu", "service_times": "10-5"}}, {"type": "way", "id": 606673547, "nodes": [5751334155, 5751334156, 5751334157, 5751334158, 5751334159, 5751334155], "tags": {"leisure": "park"}}, {"type": "way", "id": 606673551, "nodes": [5751334172, 5751334173, 5751334174, 5751334175, 5751334172], "tags": {"addr:city": "paralakhemundi", "addr:housenumber": "gosani", "addr:street": "uppalada gosani", "amenity": "school", "building": "school", "building:levels": "1", "height": "3", "name": "primary school"}}, {"type": "way", "id": 609457152, "nodes": [5772719275, 5772719276, 5772719277, 5772719278, 5772719275], "tags": {"amenity": "school", "building": "yes", "building:levels": "2", "height": "12", "name": "girls high school"}}, {"type": "way", "id": 1287891872, "nodes": [11943751917, 11943751918, 11943751919, 11943751920, 11943751917], "tags": {"amenity": "place_of_worship", "building": "yes", "name": "Mandasa Vasudeva Perumal Temple.", "religion": "hindu"}}, {"type": "way", "id": 1306880531, "nodes": [12102865284, 12102865285, 12102865286, 12102865287, 12102865284], "tags": {"amenity": "place_of_worship", "building": "yes", "name": "Bhadrakali  Ammavari Temple , Palasapuram", "religion": "hindu"}}, {"type": "way", "id": 1473346137, "nodes": [13516762047, 13516762048, 13516762049, 13516762050, 13516762051, 13516762052, 13516762053, 13516762047], "tags": {"amenity": "school", "education": "school", "name": "GTWA Girls High school , Budambo"}}, {"type": "way", "id": 1490073884, "nodes": [13657750872, 13657750873, 13657750874, 13657750875, 13657750876, 13657750877, 13657750872], "tags": {"amenity": "school", "education": "school", "name": "ZPHS , Kotha Sasanam"}}, {"type": "way", "id": 1490073888, "nodes": [13657789119, 13657789120, 13657789121, 13657789122, 13657789119], "tags": {"amenity": "place_of_worship", "building": "yes", "name": "Sri Gokeneswara Swami Temple , Patha Sasanam (Lord Shiva)", "religion": "hindu"}}, {"type": "way", "id": 1495780950, "nodes": [13703015772, 13703015773, 13703015774, 13703015775, 13703015776, 13703015777, 13703015778, 13703015779, 13703015772], "tags": {"amenity": "school", "education": "school", "name": "Ap Molodel School , Sompeta"}}, {"type": "way", "id": 1495780951, "nodes": [13703015780, 13703015781, 13703015782, 13703015783, 13703015784, 13703015785, 13703015780], "tags": {"amenity": "school", "education": "school", "name": "Government Junior College"}}, {"type": "way", "id": 1495781738, "nodes": [13703003344, 13703003345, 13703003346, 13703003347, 13703003348, 13703003349, 13703003350, 13703003351, 13703003352, 13703003344], "tags": {"amenity": "school", "education": "school", "name": "AP Model School"}}, {"type": "way", "id": 1500247337, "nodes": [13737559826, 13737559827, 13737559828, 13737559829, 13737559830, 13737559831, 13737559832, 13737559833, 13737559834, 13737559835, 13737559836, 13737559837, 13737559838, 13737559839, 13737559840, 13737559841, 13737559826], "tags": {"amenity": "school", "education": "school"}}]}