{"version": 0.6, "generator": "Overpass API 0.7.62.11 87bfad18", "osm3s": {"timestamp_osm_base": "2026-04-24T05:35:09Z", "copyright": "The data included in this document is from www.openstreetmap.org. The data is made available under ODbL."}, "elements": [{"type": "node", "id": 1639863411, "lat": 21.0954626, "lon": 85.0960551}, {"type": "node", "id": 1639863414, "lat": 21.095497, "lon": 85.0942402}, {"type": "node", "id": 1639863436, "lat": 21.095629, "lon": 85.0961598}, {"type": "node", "id": 1639863485, "lat": 21.096595, "lon": 85.0955684}, {"type": "node", "id": 1639863489, "lat": 21.0966222, "lon": 85.0942984}, {"type": "node", "id": 1639863491, "lat": 21.0966294, "lon": 85.0961714}, {"type": "node", "id": 1639863493, "lat": 21.0966403, "lon": 85.0957119}, {"type": "node", "id": 1639891892, "lat": 21.0932543, "lon": 85.0973681}, {"type": "node", "id": 1639891894, "lat": 21.0933801, "lon": 85.0969241}, {"type": "node", "id": 1639891895, "lat": 21.0934112, "lon": 85.0954877}, {"type": "node", "id": 1639891896, "lat": 21.0934168, "lon": 85.0953437}, {"type": "node", "id": 1639891897, "lat": 21.0934183, "lon": 85.0956483}, {"type": "node", "id": 1639891898, "lat": 21.0934762, "lon": 85.0959301}, {"type": "node", "id": 1639891899, "lat": 21.0934867, "lon": 85.0952579}, {"type": "node", "id": 1639891900, "lat": 21.0934918, "lon": 85.0961317}, {"type": "node", "id": 1639891901, "lat": 21.0935271, "lon": 85.0974227}, {"type": "node", "id": 1639891903, "lat": 21.093537, "lon": 85.0975712}, {"type": "node", "id": 1639891905, "lat": 21.0935653, "lon": 85.0975802}, {"type": "node", "id": 1639891924, "lat": 21.0937626, "lon": 85.0952215}, {"type": "node", "id": 1639891926, "lat": 21.0940926, "lon": 85.0974984}, {"type": "node", "id": 1639891927, "lat": 21.0943414, "lon": 85.0973605}, {"type": "node", "id": 1639891928, "lat": 21.0949832, "lon": 85.0973711}, {"type": "node", "id": 1639891929, "lat": 21.0949988, "lon": 85.0963817}, {"type": "node", "id": 1639891930, "lat": 21.0950021, "lon": 85.0962094}, {"type": "node", "id": 1639891931, "lat": 21.0950073, "lon": 85.0966772}, {"type": "node", "id": 1639891932, "lat": 21.0950991, "lon": 85.096462}, {"type": "node", "id": 1639891934, "lat": 21.0950991, "lon": 85.0966181}, {"type": "node", "id": 1639894191, "lat": 21.0978785, "lon": 85.0937254}, {"type": "node", "id": 1639894195, "lat": 21.0979308, "lon": 85.0928769}, {"type": "node", "id": 1639894344, "lat": 21.0987832, "lon": 85.0937921}, {"type": "node", "id": 1639894353, "lat": 21.0989274, "lon": 85.0929238}, {"type": "node", "id": 1639894371, "lat": 21.0990145, "lon": 85.0930455}, {"type": "node", "id": 1639894381, "lat": 21.0991041, "lon": 85.0931708}, {"type": "node", "id": 3071401131, "lat": 20.8944794, "lon": 85.54059, "tags": {"amenity": "school", "name": "U P School"}}, {"type": "node", "id": 3071402335, "lat": 20.8916228, "lon": 85.5454448, "tags": {"amenity": "school", "name": "Nigamananda High School", "name:or": "\u0b28\u0b3f\u0b17\u0b2e\u0b3e\u0b28\u0b28\u0b4d\u0b26 \u0b09\u0b1a\u0b4d\u0b1a \u0b2a\u0b4d\u0b30\u0b3e\u0b25\u0b2e\u0b3f\u0b15 \u0b2c\u0b3f\u0b26\u0b4d\u0b5f\u0b3e\u0b33\u0b5f"}}, {"type": "node", "id": 3071437195, "lat": 20.9096339, "lon": 85.5414269, "tags": {"amenity": "place_of_worship", "name": "Ashram-Nigamananda"}}, {"type": "node", "id": 3071437196, "lat": 20.9337468, "lon": 85.5431211, "tags": {"addr:district": "Dhenkanal", "addr:full": "At/Po-Kamkakhya Nagar", "addr:postcode": "759018", "addr:state": "Odisha", "amenity": "hospital", "check_date": "2026-01-18", "name": "Sub Divisional Medical Office, Kamakhyanagar", "source": "OpenGovernmentData"}}, {"type": "node", "id": 3071437198, "lat": 20.9302784, "lon": 85.5451498, "tags": {"amenity": "school", "name": "Womens College"}}, {"type": "node", "id": 3071437200, "lat": 20.9313601, "lon": 85.5461487, "tags": {"amenity": "school", "name": "Sarangdhar High Shool"}}, {"type": "node", "id": 3071437201, "lat": 20.9318266, "lon": 85.5431274, "tags": {"amenity": "atm", "cash_in": "yes", "check_date": "2026-01-18", "fee": "ATM-SBI", "operator": "State Bank of India"}}, {"type": "node", "id": 3071437204, "lat": 20.932042, "lon": 85.5432025, "tags": {"amenity": "bank", "brand:wikidata": "Q1340361", "brand:wikipedia": "en:State Bank of India", "name": "State Bank of India", "opening_hours": "Mo-Sa 10:00-16:00", "short_name": "SBI", "website": "https://www.sbi.co.in"}}, {"type": "node", "id": 3071437205, "lat": 20.9166293, "lon": 85.5440018, "tags": {"amenity": "school", "name": "U P School"}}, {"type": "node", "id": 3071437207, "lat": 20.9327037, "lon": 85.5489207, "tags": {"name": "Khemka Shopping Mall", "shop": "supermarket"}}, {"type": "node", "id": 3071437208, "lat": 20.9325581, "lon": 85.542945, "tags": {"amenity": "bus_station", "name": "Bus Stand"}}, {"type": "node", "id": 3071454987, "lat": 20.9358799, "lon": 85.5403218, "tags": {"amenity": "school", "name": "UGME School, Mundideuli"}}, {"type": "node", "id": 3071454988, "lat": 20.9192449, "lon": 85.2476606, "tags": {"amenity": "school", "name": "JNV Sarang, Dhenkanal"}}, {"type": "node", "id": 3071454990, "lat": 20.9348027, "lon": 85.5448601, "tags": {"amenity": "school", "name": "Girls UGME School"}}, {"type": "node", "id": 3071454991, "lat": 20.9404587, "lon": 85.5401516}, {"type": "node", "id": 3071454994, "lat": 20.934928, "lon": 85.5420009, "tags": {"amenity": "school", "name": "Girls High School"}}, {"type": "node", "id": 3081562278, "lat": 20.9307345, "lon": 85.5466502, "tags": {"amenity": "bank", "brand:wikidata": "Q1340361", "brand:wikipedia": "en:State Bank of India", "name": "State Bank of India", "opening_hours": "Mo-Sa 10:00-04:00", "short_name": "SBI", "website": "https://www.sbi.co.in"}}, {"type": "node", "id": 3081562279, "lat": 20.9323929, "lon": 85.5482381, "tags": {"amenity": "bank", "brand:wikidata": "Q2743499", "name": "Punjab National Bank", "name:en": "Punjab National Bank", "short_name": "PNB", "website": "https://www.pnbindia.in", "wikidata": "Q2743499", "wikimedia_commons": "Category:Punjab National Bank", "wikipedia": "en:Punjab National Bank"}}, {"type": "node", "id": 3668442636, "lat": 20.935196, "lon": 85.2638282, "tags": {"addr:city": "Dhenkanal", "addr:housenumber": "Sarang, Khalapal", "addr:postcode": "759146", "addr:street": "NH200", "amenity": "college", "ele": "77.403 m", "name": "IGIT Sarang", "note": "Indira Gandhi Institute of Technology (An Autonomous Institute of Odisha Govt.)"}}, {"type": "node", "id": 4806939120, "lat": 20.8593351, "lon": 85.1611715}, {"type": "node", "id": 4806939121, "lat": 20.8593984, "lon": 85.1624378}, {"type": "node", "id": 4806939122, "lat": 20.8593293, "lon": 85.1624378}, {"type": "node", "id": 4806939123, "lat": 20.8593725, "lon": 85.1632358}, {"type": "node", "id": 4806939124, "lat": 20.8590904, "lon": 85.1632481}, {"type": "node", "id": 4806939125, "lat": 20.8590414, "lon": 85.162484}, {"type": "node", "id": 4806939126, "lat": 20.8588024, "lon": 85.1624932}, {"type": "node", "id": 4806939127, "lat": 20.8587247, "lon": 85.1612177}, {"type": "node", "id": 7085358019, "lat": 20.9469417, "lon": 85.2414983}, {"type": "node", "id": 7087304441, "lat": 20.9317695, "lon": 85.5434811, "tags": {"addr:district": "Dhenkanal", "addr:full": "Hanuman Bazar", "addr:postcode": "759018", "addr:state": "Odisha", "amenity": "hospital", "check_date": "2026-01-18", "name": "Bhagirathi Hospital", "source": "OpenGovernmentData"}}, {"type": "node", "id": 7208906895, "lat": 21.225943, "lon": 85.393306, "tags": {"addr:district": "Kendujhar", "addr:full": "Near Sirigida High School", "addr:postcode": "758076", "addr:state": "Odisha", "addr:subdistrict": "Telkoi P.S.", "amenity": "hospital", "name": "Sirigida Oh", "source": "OpenGovernmentData"}}, {"type": "node", "id": 7220737996, "lat": 21.1369111, "lon": 85.1641327, "tags": {"addr:district": "Anugul", "addr:full": "Pabitranagar", "addr:postcode": "759100", "addr:state": "Odisha", "addr:subdistrict": "Kaniha", "amenity": "hospital", "description": "Government hospital", "name": "Government hospital, Pabitranagar", "source": "OpenGovernmentData"}}, {"type": "node", "id": 7220780232, "lat": 21.0691406, "lon": 85.377135, "tags": {"addr:district": "Dhenkanal", "addr:postcode": "759120", "addr:state": "Odisha", "addr:subdistrict": "Kankadahad", "amenity": "hospital", "name": "Mahabirod Government Hospital", "source": "OpenGovernmentData"}}, {"type": "node", "id": 7701450086, "lat": 20.9311163, "lon": 85.5439817, "tags": {"addr:district": "Dhenkanal", "addr:full": "Kamakhyanagar", "addr:postcode": "759018", "addr:state": "Odhisa", "amenity": "hospital", "name": "Sheba Hospital", "source": "Local Knowledge"}}, {"type": "node", "id": 7701450088, "lat": 20.9202794, "lon": 85.5440501, "tags": {"addr:district": "Dhenkanal", "addr:full": "Kamakhyanagar", "addr:postcode": "759018", "addr:state": "Odhisa", "amenity": "hospital", "name": "Rekula Hadajoda Hospital", "name:or": "\u0b30\u0b47\u0b15\u0b41\u0b33\u0b3e \u0b39\u0b3e\u0b21 \u0b2f\u0b4b\u0b21\u0b3c\u0b3e \u0b21\u0b3e\u0b15\u0b4d\u0b24\u0b30\u0b16\u0b3e\u0b28\u0b3e", "source": "Local Knowledge"}}, {"type": "node", "id": 7701450101, "lat": 20.8638311, "lon": 85.2759065, "tags": {"addr:district": "Dhenkanal", "addr:full": "Kamalanga", "addr:postcode": "759121", "addr:state": "Odhisa", "amenity": "hospital", "name": "Surendra Hospital", "source": "Local Knowledge"}}, {"type": "node", "id": 7701450127, "lat": 20.9223277, "lon": 85.3166142, "tags": {"addr:district": "Dhenkanal", "addr:full": "Parjang College Road, Garhaparajang", "addr:postcode": "759120", "addr:state": "Odhisa", "amenity": "clinic", "name": "Homeo Clinic", "source": "Local Knowledge"}}, {"type": "node", "id": 7701450131, "lat": 20.8916536, "lon": 85.3231218, "tags": {"addr:district": "Dhenkanal", "addr:full": "Parjang - Patara Pada Road, Lodhani", "addr:postcode": "759120", "addr:state": "Odhisa", "amenity": "clinic", "name": "Devdash Clinic", "source": "Local Knowledge"}}, {"type": "node", "id": 7701450134, "lat": 20.9323991, "lon": 85.5430131, "tags": {"addr:district": "Dhenkanal", "addr:full": "Kamakhyanagar", "addr:postcode": "759018", "addr:state": "Odhisa", "amenity": "clinic", "name": "Apollo Clinic", "source": "Local Knowledge"}}, {"type": "node", "id": 7713411888, "lat": 20.9202829, "lon": 85.2225188, "tags": {"addr:district": "Angul", "addr:full": "Santhapada", "addr:postcode": "759104", "addr:state": "Odhisa", "amenity": "clinic", "name": "Sun Clinic", "source": "Local Knowledge"}}, {"type": "node", "id": 7713411902, "lat": 21.1308544, "lon": 85.1686432, "tags": {"addr:district": "Angul", "addr:full": "National Highway 23, Pabitra Nagar", "addr:postcode": "759100", "addr:state": "Odhisa", "amenity": "hospital", "name": "Homeopathy Hospital", "source": "Local Knowledge"}}, {"type": "node", "id": 7713411906, "lat": 20.902931, "lon": 85.202592, "tags": {"addr:district": "Angul", "addr:full": "Jagannathpur", "addr:postcode": "759101", "addr:state": "Odhisa", "amenity": "clinic", "healthcare": "clinic", "name": "Shubhalaxmi Nursing Home", "source": "Local Knowledge"}}, {"type": "node", "id": 7713411908, "lat": 20.9396991, "lon": 85.2003582, "tags": {"addr:district": "Angul", "addr:full": "Talcher", "addr:postcode": "759100", "addr:state": "Odhisa", "amenity": "clinic", "name": "Sevak Nursing Home", "source": "Local Knowledge"}}, {"type": "node", "id": 7713411913, "lat": 21.24436, "lon": 85.1906986, "tags": {"addr:district": "Angul", "addr:full": "Satyabandha, Khamar", "addr:postcode": "759118", "addr:state": "Odhisa", "amenity": "hospital", "name": "Kalyani Multi Speciality Hospital", "source": "Local Knowledge"}}, {"type": "node", "id": 7713411914, "lat": 20.9030903, "lon": 85.2188501, "tags": {"addr:district": "Angul", "addr:full": "Naugan", "addr:postcode": "759101", "addr:state": "Odhisa", "amenity": "hospital", "healthcare": "hospital", "name": "S.S Hospital", "source": "Local Knowledge"}}, {"type": "node", "id": 7713411915, "lat": 20.9440884, "lon": 85.2138372, "tags": {"addr:district": "Angul", "addr:full": "ITI Road, Talcher", "addr:postcode": "759100", "addr:state": "Odhisa", "amenity": "clinic", "name": "Sanjeevani Clinic and Nursing Home", "source": "Local Knowledge"}}, {"type": "node", "id": 7713411917, "lat": 20.9197535, "lon": 85.2201419, "tags": {"addr:district": "Angul", "addr:full": "Santhapada", "addr:postcode": "759101", "addr:state": "Odhisa", "amenity": "hospital", "name": "Laxmikiran Eye Hospital", "source": "Local Knowledge"}}, {"type": "node", "id": 7713411918, "lat": 20.919065, "lon": 85.221647, "tags": {"addr:district": "Angul", "addr:full": "Santhapada", "addr:postcode": "759101", "addr:state": "Odhisa", "amenity": "clinic", "name": "Krishna Clinic", "source": "Local Knowledge"}}, {"type": "node", "id": 7713411919, "lat": 20.9517657, "lon": 85.2058267, "tags": {"addr:district": "Angul", "addr:full": "Talcher", "addr:postcode": "759100", "addr:state": "Odhisa", "amenity": "hospital", "name": "Deulbera Hospital", "source": "Local Knowledge"}}, {"type": "node", "id": 7713411923, "lat": 20.934453, "lon": 85.1786232, "tags": {"addr:district": "Angul", "addr:full": "Dera, Talcher", "addr:postcode": "759116", "addr:state": "Odhisa", "amenity": "hospital", "name": "Central Hospital", "source": "Local Knowledge"}}, {"type": "node", "id": 7713411925, "lat": 20.9503715, "lon": 85.2305272, "tags": {"addr:district": "Angul", "addr:full": "Talcher Town Road, Talcher", "addr:postcode": "759107", "addr:state": "Odhisa", "amenity": "clinic", "name": "Jagabandhu Clinic", "source": "Local Knowledge"}}, {"type": "node", "id": 7713411929, "lat": 21.16781, "lon": 85.1192823, "tags": {"addr:district": "Angul", "addr:full": "Titirima", "addr:postcode": "759117", "addr:state": "Odhisa", "amenity": "hospital", "name": "Nalam Hospital", "source": "Local Knowledge"}}, {"type": "node", "id": 7713411932, "lat": 20.9054215, "lon": 85.219713, "tags": {"addr:district": "Angul", "addr:full": "Anand Bazar, Chhak, Talchar", "addr:postcode": "759101", "addr:state": "Odhisa", "amenity": "clinic", "healthcare": "clinic", "name": "Physiotherapy & Wellness Clinic", "source": "Local Knowledge"}}, {"type": "node", "id": 7713411936, "lat": 21.017962, "lon": 85.171929, "tags": {"addr:district": "Angul", "addr:postcode": "759100", "addr:state": "Odhisa", "amenity": "hospital", "name": "Godibandha Hospital", "source": "Local Knowledge"}}, {"type": "node", "id": 7713411939, "lat": 20.9062456, "lon": 85.2127224, "tags": {"addr:district": "Angul", "addr:full": "Angul", "addr:postcode": "759101", "addr:state": "Odhisa", "amenity": "hospital", "healthcare": "hospital", "name": "Ashalok Hospital", "source": "Local Knowledge"}}, {"type": "node", "id": 7713411944, "lat": 20.8814156, "lon": 85.1710976, "tags": {"addr:district": "Angul", "addr:full": "Balramprasad Part", "addr:postcode": "759123", "addr:state": "Odhisa", "amenity": "hospital", "name": "ESIC Hospital", "source": "Local Knowledge"}}, {"type": "node", "id": 7713411945, "lat": 20.9476124, "lon": 85.2278608, "tags": {"addr:district": "Angul", "addr:full": "Talcher Town", "addr:postcode": "759107", "addr:state": "Odhisa", "amenity": "clinic", "name": "Patanjali Chikitsalaya", "source": "Local Knowledge"}}, {"type": "node", "id": 7713411953, "lat": 21.0643891, "lon": 85.1322597, "tags": {"addr:district": "Angul", "addr:full": "Samal-NTPC Road", "addr:postcode": "759100", "addr:state": "Odhisa", "amenity": "hospital", "name": "Samal Barrage Hospital", "source": "Local Knowledge"}}, {"type": "node", "id": 7713411957, "lat": 20.9433647, "lon": 85.2060577, "tags": {"addr:district": "Angul", "addr:full": "Talcher", "addr:postcode": "759100", "addr:state": "Odhisa", "amenity": "clinic", "name": "Laxmikiran Eye Care", "source": "Local Knowledge"}}, {"type": "node", "id": 8609447526, "lat": 20.9461526, "lon": 85.2406239}, {"type": "node", "id": 8609447527, "lat": 20.9474101, "lon": 85.2407259}, {"type": "node", "id": 8609447528, "lat": 20.9474302, "lon": 85.2414528}, {"type": "node", "id": 8609447529, "lat": 20.9469467, "lon": 85.2416003}, {"type": "node", "id": 8609447530, "lat": 20.945837, "lon": 85.2417693}, {"type": "node", "id": 8609447531, "lat": 20.9457218, "lon": 85.2406883}, {"type": "node", "id": 11287851386, "lat": 20.9238638, "lon": 85.138474, "tags": {"amenity": "place_of_worship", "check_date": "2023-10-27", "internet_access": "no", "name": "Shiv temple", "payment:cards": "no", "payment:cash": "yes", "payment:credit_cards": "no", "payment:debit_cards": "no", "religion": "hindu", "wheelchair": "no"}}, {"type": "node", "id": 11287851387, "lat": 20.9242567, "lon": 85.138489, "tags": {"amenity": "place_of_worship", "check_date": "2023-10-27", "internet_access": "no", "name": "Hanuman Temple", "payment:cards": "no", "payment:cash": "yes", "payment:credit_cards": "no", "payment:debit_cards": "no", "religion": "hindu", "wheelchair": "no"}}, {"type": "node", "id": 11287886405, "lat": 20.9242828, "lon": 85.1381258, "tags": {"amenity": "school", "check_date": "2023-10-27", "grades": "1-6", "name": "BHARATPUR U.P SCHOOL", "operator": "MCL", "operator:type": "government", "source": "survey", "wheelchair": "no"}}, {"type": "node", "id": 11287898167, "lat": 20.9253375, "lon": 85.1376147, "tags": {"amenity": "hospital", "check_date": "2023-10-27", "healthcare": "hospital", "name": "BHARATPUR DISPENSARY", "operator": "MCL", "operator:type": "government", "payment:cards": "no", "payment:cash": "yes", "payment:credit_cards": "no", "payment:debit_cards": "no", "source": "survey", "wheelchair": "yes"}}, {"type": "node", "id": 11287966484, "lat": 20.9259431, "lon": 85.1369851, "tags": {"addr:postcode": "759148", "amenity": "atm", "cash_in": "no", "check_date": "2023-10-27", "covered": "yes", "currency:INR": "yes", "drive_through": "yes", "indoor": "yes", "operator": "SBI BANK", "source": "survey", "wheelchair": "no"}}, {"type": "node", "id": 11287966485, "lat": 20.9259714, "lon": 85.1372978, "tags": {"amenity": "atm", "cash_in": "no", "check_date": "2023-10-27", "covered": "yes", "currency:INR": "yes", "drive_through": "yes", "indoor": "yes", "operator": "UCO BANK", "source": "survey", "wheelchair": "no"}}, {"type": "node", "id": 11290818952, "lat": 20.9248402, "lon": 85.1465991}, {"type": "node", "id": 11290876234, "lat": 20.9238579, "lon": 85.1443075, "tags": {"air_conditioning": "yes", "amenity": "restaurant", "bar": "no", "check_date": "2023-10-26", "name": "The RED LEAF, BLACK DIAMOND RESTURANT", "outdoor_seating": "no", "payment:cash": "yes", "payment:mastercard": "yes", "payment:visa": "yes", "source": "survey", "takeaway": "yes", "toilets": "yes", "toilets:wheelchair": "yes", "wheelchair": "no"}}, {"type": "node", "id": 11290886761, "lat": 20.9245731, "lon": 85.1477835, "tags": {"amenity": "place_of_worship", "check_date": "2023-10-26", "name": "HANUMAN TEMPLE", "religion": "hindu", "source": "survey", "wheelchair": "no"}}, {"type": "node", "id": 11290886765, "lat": 20.9237799, "lon": 85.1464004, "tags": {"amenity": "place_of_worship", "check_date": "2023-10-26", "name": "Tarini Temple", "religion": "hindu", "source": "survey", "wheelchair": "no"}}, {"type": "node", "id": 11290895599, "lat": 20.9243466, "lon": 85.1471462, "tags": {"amenity": "place_of_worship", "check_date": "2023-10-26", "internet_access": "no", "name": "Shiv Temple", "payment:cards": "no", "payment:cash": "yes", "payment:credit_cards": "no", "payment:debit_cards": "no", "religion": "hindu", "source": "survey", "wheelchair": "no"}}, {"type": "node", "id": 11290931614, "lat": 20.9267465, "lon": 85.1430999, "tags": {"air_conditioning": "yes", "amenity": "bank", "atm": "no", "branch": "Bharatpur Colliery", "check_date": "2023-10-27", "currency:INR": "yes", "drive_through": "no", "name": "UCO BANK", "opening_hours": "Mo-Sa 10:00-12:00,13:00-17:00", "operator": "UCO Bank", "source": "survey", "wheelchair": "yes"}}, {"type": "node", "id": 11291022093, "lat": 20.9259315, "lon": 85.1348866, "tags": {"amenity": "place_of_worship", "check_date": "2023-10-26", "name": "Tarini Temple", "religion": "hindu", "source": "survey", "wheelchair": "no"}}, {"type": "node", "id": 11292175257, "lat": 20.9195175, "lon": 85.1422821}, {"type": "node", "id": 11366019307, "lat": 20.9248652, "lon": 85.1471637}, {"type": "node", "id": 11366019308, "lat": 20.9247312, "lon": 85.146642}, {"type": "node", "id": 11366019309, "lat": 20.9248314, "lon": 85.1465602}, {"type": "node", "id": 11366019310, "lat": 20.9251558, "lon": 85.1464449}, {"type": "node", "id": 11366019311, "lat": 20.9253087, "lon": 85.1470296}, {"type": "node", "id": 11366044781, "lat": 20.9203355, "lon": 85.142549}, {"type": "node", "id": 11366044782, "lat": 20.9196227, "lon": 85.1428816}, {"type": "node", "id": 11366044783, "lat": 20.9196102, "lon": 85.14284}, {"type": "node", "id": 11366044784, "lat": 20.9195864, "lon": 85.1428507}, {"type": "node", "id": 11366044785, "lat": 20.9189914, "lon": 85.1423183}, {"type": "node", "id": 11366044786, "lat": 20.9189814, "lon": 85.1422057}, {"type": "node", "id": 11366044787, "lat": 20.9202228, "lon": 85.1415378}, {"type": "node", "id": 11366044788, "lat": 20.9207076, "lon": 85.142085}, {"type": "node", "id": 11366044789, "lat": 20.9206512, "lon": 85.1422392}, {"type": "node", "id": 11366044790, "lat": 20.9206713, "lon": 85.1423599}, {"type": "node", "id": 11710492629, "lat": 20.9559703, "lon": 85.2387547}, {"type": "node", "id": 11710492630, "lat": 20.9560117, "lon": 85.2389839}, {"type": "node", "id": 11710492631, "lat": 20.955358, "lon": 85.2392896}, {"type": "node", "id": 11710492632, "lat": 20.9552774, "lon": 85.2388582}, {"type": "node", "id": 11710493878, "lat": 20.9556979, "lon": 85.2389281, "tags": {"addr:city": "Talcher", "addr:district": "Angul", "addr:postcode": "759107", "addr:street": "Talcher palace lane", "description": "Talcher only public park in municipality area", "leisure": "park", "opening_hours": "Mo-Su 09:00-21:00"}}, {"type": "node", "id": 11909266860, "lat": 20.9458693, "lon": 85.2115718}, {"type": "node", "id": 11909266861, "lat": 20.9458268, "lon": 85.211435}, {"type": "node", "id": 11909266862, "lat": 20.9456886, "lon": 85.2113992}, {"type": "node", "id": 11909266863, "lat": 20.9456875, "lon": 85.2115767}, {"type": "node", "id": 11909266864, "lat": 20.9457427, "lon": 85.2115767}, {"type": "node", "id": 11909266865, "lat": 20.9458049, "lon": 85.2115742}, {"type": "node", "id": 11909266866, "lat": 20.9458452, "lon": 85.2115705}, {"type": "node", "id": 12178176923, "lat": 20.9479654, "lon": 85.2239621, "tags": {"addr:city": "Talcher", "addr:district": "Angul", "addr:postcode": "759100", "addr:street": "Angul - Talcher Road", "amenity": "cafe", "cuisine": "pizza;burger;chicken;ice_cream;barbecue;sandwich", "internet_access": "wlan", "internet_access:fee": "no", "name": "Taste of Talcher", "opening_hours": "Mo-Su 10:00-22:00", "website": "www.tasteoftalcher.com"}}, {"type": "node", "id": 12296165081, "lat": 20.9186733, "lon": 85.1420531}, {"type": "node", "id": 12296165082, "lat": 20.9187257, "lon": 85.1421819}, {"type": "node", "id": 12296165083, "lat": 20.9187341, "lon": 85.1423219}, {"type": "node", "id": 12296165084, "lat": 20.9186977, "lon": 85.1424568}, {"type": "node", "id": 12296165085, "lat": 20.9186207, "lon": 85.1425704}, {"type": "node", "id": 12296165086, "lat": 20.9180435, "lon": 85.1425117}, {"type": "node", "id": 12296165087, "lat": 20.9179909, "lon": 85.142396}, {"type": "node", "id": 12296165088, "lat": 20.9179747, "lon": 85.1422685}, {"type": "node", "id": 12296165089, "lat": 20.9179963, "lon": 85.1421419}, {"type": "node", "id": 12296165090, "lat": 20.9180538, "lon": 85.1420288}, {"type": "node", "id": 12296165091, "lat": 20.9185122, "lon": 85.1426494}, {"type": "node", "id": 12296165092, "lat": 20.9183852, "lon": 85.1426843}, {"type": "node", "id": 12296165093, "lat": 20.9182547, "lon": 85.142671}, {"type": "node", "id": 12296165094, "lat": 20.9181361, "lon": 85.1426111}, {"type": "node", "id": 12296165095, "lat": 20.9181413, "lon": 85.1419406}, {"type": "node", "id": 12296165096, "lat": 20.9182501, "lon": 85.1418859}, {"type": "node", "id": 12296165097, "lat": 20.9183694, "lon": 85.1418703}, {"type": "node", "id": 12296165098, "lat": 20.9184873, "lon": 85.1418952}, {"type": "node", "id": 12296165099, "lat": 20.9185921, "lon": 85.1419583}, {"type": "node", "id": 12296165100, "lat": 20.9193589, "lon": 85.1430428}, {"type": "node", "id": 12296165201, "lat": 20.9193389, "lon": 85.1428327}, {"type": "node", "id": 12296165202, "lat": 20.9193812, "lon": 85.1428136}, {"type": "node", "id": 12296165203, "lat": 20.9193924, "lon": 85.1424507}, {"type": "node", "id": 12296165204, "lat": 20.9192586, "lon": 85.142446}, {"type": "node", "id": 12296165205, "lat": 20.9192341, "lon": 85.1425009}, {"type": "node", "id": 12296165206, "lat": 20.9191851, "lon": 85.1424986}, {"type": "node", "id": 12296165207, "lat": 20.9191805, "lon": 85.1426083}, {"type": "node", "id": 12296165208, "lat": 20.9192184, "lon": 85.1426346}, {"type": "node", "id": 12296165209, "lat": 20.9192105, "lon": 85.1428124}, {"type": "node", "id": 12296165210, "lat": 20.919264, "lon": 85.1428151}, {"type": "node", "id": 12296165211, "lat": 20.9192541, "lon": 85.1430356}, {"type": "node", "id": 12296165212, "lat": 20.9193197, "lon": 85.1430936}, {"type": "node", "id": 12296165217, "lat": 20.9194665, "lon": 85.1423394}, {"type": "node", "id": 12296165218, "lat": 20.9193967, "lon": 85.1423498}, {"type": "node", "id": 12296165219, "lat": 20.9194104, "lon": 85.1424553}, {"type": "node", "id": 12296165220, "lat": 20.9194802, "lon": 85.1424449}, {"type": "node", "id": 12296165221, "lat": 20.9191167, "lon": 85.1423662}, {"type": "node", "id": 12296165222, "lat": 20.9190562, "lon": 85.1423758}, {"type": "node", "id": 12296165223, "lat": 20.9190702, "lon": 85.1424771}, {"type": "node", "id": 12296165224, "lat": 20.9191307, "lon": 85.1424674}, {"type": "node", "id": 12296165225, "lat": 20.918991, "lon": 85.1423433}, {"type": "node", "id": 12296165226, "lat": 20.9190512, "lon": 85.1430882}, {"type": "node", "id": 12296165227, "lat": 20.9195708, "lon": 85.1428494}, {"type": "node", "id": 12296165237, "lat": 20.9193648, "lon": 85.1429804}, {"type": "node", "id": 12296165238, "lat": 20.9192607, "lon": 85.1430523}, {"type": "node", "id": 12296165239, "lat": 20.9195971, "lon": 85.1428459, "tags": {"barrier": "gate"}}, {"type": "node", "id": 12296165254, "lat": 20.9195085, "lon": 85.1422939}, {"type": "node", "id": 12296182435, "lat": 20.9176579, "lon": 85.1416752}, {"type": "node", "id": 12296182436, "lat": 20.9176197, "lon": 85.1416696}, {"type": "node", "id": 12296182437, "lat": 20.9175955, "lon": 85.1418579}, {"type": "node", "id": 12296182438, "lat": 20.9176689, "lon": 85.1418687}, {"type": "node", "id": 12296182439, "lat": 20.9176809, "lon": 85.1417746}, {"type": "node", "id": 12296182440, "lat": 20.9176497, "lon": 85.1417388}, {"type": "node", "id": 12432266355, "lat": 20.9427083, "lon": 85.5393845}, {"type": "node", "id": 12432266356, "lat": 20.942598, "lon": 85.5393308}, {"type": "node", "id": 12432266357, "lat": 20.9426231, "lon": 85.5388641}, {"type": "node", "id": 12432266358, "lat": 20.940569, "lon": 85.5387944}, {"type": "node", "id": 12432266359, "lat": 20.9423826, "lon": 85.5406398}, {"type": "way", "id": 151162351, "nodes": [1639863411, 1639863414, 1639863489, 1639863485, 1639863493, 1639863491, 1639863436, 1639863411], "tags": {"amenity": "hospital"}}, {"type": "way", "id": 151164783, "nodes": [1639891899, 1639891924, 1639891930, 1639891929, 1639891932, 1639891934, 1639891931, 1639891928, 1639891927, 1639891926, 1639891905, 1639891903, 1639891901, 1639891892, 1639891894, 1639891900, 1639891898, 1639891897, 1639891895, 1639891896, 1639891899], "tags": {"amenity": "school"}}, {"type": "way", "id": 151164785, "nodes": [1639894195, 1639894191, 1639894344, 1639894381, 1639894371, 1639894353, 1639894195], "tags": {"leisure": "park"}}, {"type": "way", "id": 488384708, "nodes": [4806939120, 4806939121, 4806939122, 4806939123, 4806939124, 4806939125, 4806939126, 4806939127, 4806939120], "tags": {"leisure": "park", "name": "Madhusudan Park"}}, {"type": "way", "id": 928075498, "nodes": [8609447531, 8609447530, 8609447529, 7085358019, 8609447528, 8609447527, 8609447526, 8609447531], "tags": {"addr:district": "Angul", "addr:full": "At/Po:Talcher", "addr:postcode": "759107", "addr:state": "Odisha", "amenity": "hospital", "healthcare": "hospital", "healthcare:speciality": "paediatrics;ophthalmology;emergency;radiology;cardiothoracic_surgery;radiotherapy;orthopaedics;urology;gastroenterology", "name": "Sub Divisonal Hospital, Talcher", "source": "OpenGovernmentData"}}, {"type": "way", "id": 1225627265, "nodes": [11366044790, 11366044789, 11366044788, 11366044787, 11366044786, 11366044785, 11292175257, 11366044784, 12296165239, 11366044783, 11366044782, 11366044781, 11366044790], "tags": {"leisure": "park"}}, {"type": "way", "id": 1225627372, "nodes": [11366019311, 11366019310, 11366019309, 11290818952, 11366019308, 11366019307, 11366019311], "tags": {"access": "yes", "leisure": "park", "name": "Dr. Bhim Rao Ambedkar Park", "name:etymology:wikidata": "Q231690", "smoking": "no", "source": "survey"}}, {"type": "way", "id": 1259595496, "nodes": [11710492629, 11710492630, 11710492631, 11710492632, 11710492629], "tags": {"addr:city": "Talcher", "addr:district": "Angul", "addr:postcode": "759107", "addr:street": "Talcher palace road", "description": "Talcher's only park in municipality", "leisure": "park", "name": "jagganath park", "opening_hours": "Mo-Su 09:00-21:00"}}, {"type": "way", "id": 1283544070, "nodes": [11909266860, 11909266861, 11909266862, 11909266863, 11909266864, 11909266865, 11909266866, 11909266860], "tags": {"addr:city": "Talcher", "addr:district": "Angul", "addr:postcode": "759100", "addr:street": "Angul - Talcher Road", "amenity": "cafe", "building": "yes", "cuisine": "burger;pizza;sandwich;chicken;indian", "internet_access": "no", "name": "Mio Amore cake shop, Talcher", "phone": "09556649696", "website": "https://mioamoreshop.com"}}, {"type": "way", "id": 1329023445, "nodes": [12296165095, 12296165096, 12296165097, 12296165098, 12296165099, 12296165081, 12296165082, 12296165083, 12296165084, 12296165085, 12296165091, 12296165092, 12296165093, 12296165094, 12296165086, 12296165087, 12296165088, 12296165089, 12296165090, 12296165095], "tags": {"leisure": "park"}}, {"type": "way", "id": 1329023446, "nodes": [12296165100, 12296165201, 12296165202, 12296165203, 12296165204, 12296165205, 12296165206, 12296165207, 12296165208, 12296165209, 12296165210, 12296165211, 12296165212, 12296165100], "tags": {"amenity": "place_of_worship", "building": "yes", "name": "Jagannath Temple, Central Workshop", "religion": "hindu"}}, {"type": "way", "id": 1329023448, "nodes": [12296165217, 12296165218, 12296165219, 12296165220, 12296165217], "tags": {"amenity": "place_of_worship", "building": "yes", "religion": "hindu"}}, {"type": "way", "id": 1329023449, "nodes": [12296165221, 12296165222, 12296165223, 12296165224, 12296165221], "tags": {"amenity": "place_of_worship", "building": "yes", "religion": "hindu"}}, {"type": "way", "id": 1329023450, "nodes": [12296165254, 12296165225, 12296165226, 12296165238, 12296165212, 12296165237, 12296165227, 12296165254], "tags": {"amenity": "place_of_worship", "building": "yes", "layer": "-1", "name": "Jagannath Temple, Central Workshop", "religion": "hindu"}}, {"type": "way", "id": 1329024991, "nodes": [12296182435, 12296182436, 12296182437, 12296182438, 12296182439, 12296182440, 12296182435], "tags": {"amenity": "place_of_worship", "building": "yes", "name": "Krishna Temple", "religion": "hindu"}}, {"type": "way", "id": 1343633056, "nodes": [12432266359, 3071454991, 12432266358, 12432266357, 12432266356, 12432266355, 12432266359], "tags": {"amenity": "school", "name": "Kamakhyanaga College"}}]}