{"version": 0.6, "generator": "Overpass API 0.7.62.11 87bfad18", "osm3s": {"timestamp_osm_base": "2026-04-24T05:34:05Z", "copyright": "The data included in this document is from www.openstreetmap.org. The data is made available under ODbL."}, "elements": [{"type": "node", "id": 7205843888, "lat": 21.7636804, "lon": 84.5247464, "tags": {"addr:district": "Sambalpur", "addr:full": "Subcentre, Kusumi", "addr:postcode": "768222", "addr:state": "Odisha", "addr:subdistrict": "Kochinda P.S.", "amenity": "hospital", "name": "Government Hospital, Kusumi", "source": "OpenGovernmentData"}}, {"type": "node", "id": 7206391877, "lat": 21.7915958, "lon": 84.5213373, "tags": {"addr:district": "Sambalpur", "addr:full": "On Road, Kuntara", "addr:postcode": "768227", "addr:state": "Odisha", "addr:subdistrict": "Kochinda P.S.", "amenity": "hospital", "description": "Government Hospital", "name": "Government Hospital, Kuntara", "source": "OpenGovernmentData"}}, {"type": "node", "id": 7214393734, "lat": 21.7462216, "lon": 84.3507019, "tags": {"addr:district": "Sambalpur", "addr:full": "Infront Of Office Of Sub Collector, Kuchinda Sambalpur, Kuchinda", "addr:postcode": "768222", "addr:state": "Odisha", "addr:subdistrict": "Kochinda P.S.", "amenity": "hospital", "description": "Sub-District Hospital", "name": "Sub-District Hospital,Kuchinda", "source": "OpenGovernmentData"}}, {"type": "node", "id": 7712727556, "lat": 22.0700513, "lon": 84.2095612, "tags": {"addr:district": "Sundargarh", "addr:full": "Talsara", "addr:postcode": "770022", "addr:state": "Odhisa", "amenity": "hospital", "name": "Government Ayurvedic Hospital", "source": "Local Knowledge"}}, {"type": "node", "id": 7712837025, "lat": 21.889048, "lon": 84.212452, "tags": {"addr:district": "Jharsuguda", "addr:full": "Laikera", "addr:postcode": "768215", "addr:state": "Odhisa", "amenity": "hospital", "name": "Laikera Homeopathy Hospital", "source": "Local Knowledge"}}, {"type": "node", "id": 7712837035, "lat": 21.8908752, "lon": 84.2129937, "tags": {"addr:district": "Jharsuguda", "addr:full": "Laikera", "addr:postcode": "768215", "addr:state": "Odhisa", "amenity": "hospital", "name": "Government Ayurvedic Hospital", "source": "Local Knowledge"}}, {"type": "node", "id": 7712918623, "lat": 21.7458536, "lon": 84.352121, "tags": {"addr:district": "Sambalpur", "addr:full": "Kuchinda", "addr:postcode": "768222", "addr:state": "Odhisa", "amenity": "clinic", "name": "Patanjali Chikitsalaya", "source": "Local Knowledge"}}, {"type": "node", "id": 7712918679, "lat": 21.7328132, "lon": 84.3514297, "tags": {"addr:district": "Sambalpur", "addr:full": "Kuchinda", "addr:postcode": "768222", "addr:state": "Odhisa", "amenity": "hospital", "name": "Gountia Hospital", "source": "Local Knowledge"}}, {"type": "node", "id": 7712918690, "lat": 21.7443419, "lon": 84.3485924, "tags": {"addr:district": "Sambalpur", "addr:full": "Kuchinda", "addr:postcode": "768222", "addr:state": "Odhisa", "amenity": "hospital", "name": "Government Homeopathy Hospital", "source": "Local Knowledge"}}, {"type": "node", "id": 11752501579, "lat": 21.8082183, "lon": 84.1466191}, {"type": "node", "id": 11752501580, "lat": 21.8082014, "lon": 84.1468424}, {"type": "node", "id": 11752501581, "lat": 21.807954, "lon": 84.146782}, {"type": "node", "id": 11752501582, "lat": 21.8080135, "lon": 84.1465944}, {"type": "node", "id": 11752501583, "lat": 21.8080937, "lon": 84.1466057}, {"type": "node", "id": 11752522939, "lat": 21.8144394, "lon": 84.1482518, "tags": {"amenity": "fast_food", "name": "Chowmin Dukan"}}, {"type": "node", "id": 12362706501, "lat": 21.7784164, "lon": 84.1871176, "tags": {"addr:postcode": "768213", "addr:street": "Samasingha", "amenity": "bank", "name": "SBI Samasingha"}}, {"type": "node", "id": 12362733602, "lat": 21.7362844, "lon": 84.1725948, "tags": {"addr:postcode": "768213", "addr:street": "Sodamal", "amenity": "school", "name": "Sodamal High School"}}, {"type": "node", "id": 12364113666, "lat": 21.8159752, "lon": 84.2636271, "tags": {"amenity": "school", "name": "HSC Pokharasalhe/ Baghamara"}}, {"type": "way", "id": 1265092041, "nodes": [11752501579, 11752501580, 11752501581, 11752501582, 11752501583, 11752501579], "tags": {"amenity": "school", "name": "Dandabuda Primary School", "operator": "Government of Odisha"}}]}