{"version": 0.6, "generator": "Overpass API 0.7.62.11 87bfad18", "osm3s": {"timestamp_osm_base": "2026-04-24T05:32:00Z", "copyright": "The data included in this document is from www.openstreetmap.org. The data is made available under ODbL."}, "elements": [{"type": "node", "id": 11392258333, "lat": 18.2456876, "lon": 82.7967714, "tags": {"amenity": "bus_station", "bus": "yes", "name": "Kinchumanda Bus Stop", "public_transport": "station"}}, {"type": "node", "id": 12478110757, "lat": 18.2723438, "lon": 82.9654685}, {"type": "node", "id": 12478110758, "lat": 18.2721343, "lon": 82.9655104}, {"type": "node", "id": 12478110759, "lat": 18.2721552, "lon": 82.9656318}, {"type": "node", "id": 12478110760, "lat": 18.2723626, "lon": 82.9656185}, {"type": "way", "id": 1348955397, "nodes": [12478110757, 12478110758, 12478110759, 12478110760, 12478110757], "tags": {"addr:district": "Araku Valley Mandal, Andhra Pradesh", "addr:postcode": "531149", "amenity": "place_of_worship", "building": "yes", "denomination": "baptist", "name": "CBM Church, Sunkarametta", "religion": "christian"}}]}