{"version": 0.6, "generator": "Overpass API 0.7.62.11 87bfad18", "osm3s": {"timestamp_osm_base": "2026-04-24T05:33:01Z", "copyright": "The data included in this document is from www.openstreetmap.org. The data is made available under ODbL."}, "elements": [{"type": "node", "id": 5528211718, "lat": 18.8066802, "lon": 84.1427368}, {"type": "node", "id": 5529889624, "lat": 18.7776657, "lon": 84.0936945, "tags": {"amenity": "bank", "name": "State Bank of India"}}, {"type": "node", "id": 5529893432, "lat": 18.7790179, "lon": 84.0933297, "tags": {"amenity": "place_of_worship", "name": "CHURCH", "religion": "christian"}}, {"type": "node", "id": 5529896033, "lat": 18.7792313, "lon": 84.093024, "tags": {"amenity": "place_of_worship", "name": "TEMPLE", "religion": "hindu"}}, {"type": "node", "id": 5529900605, "lat": 18.7804426, "lon": 84.0918572, "tags": {"amenity": "bank", "name": "HDFC Bank"}}, {"type": "node", "id": 5534429259, "lat": 18.7868808, "lon": 84.0898472, "tags": {"amenity": "restaurant", "name": "Restaurante"}}, {"type": "node", "id": 5534460573, "lat": 18.7806282, "lon": 84.0917487, "tags": {"amenity": "restaurant", "name": "Restaurante"}}, {"type": "node", "id": 5534483009, "lat": 18.7796852, "lon": 84.0917185, "tags": {"amenity": "pharmacy", "dispensing": "yes", "healthcare": "pharmacy", "name": "PharmacY STORE"}}, {"type": "node", "id": 5747547354, "lat": 18.7800207, "lon": 84.1273696, "tags": {"addr:city": "paralkhemundi", "addr:housenumber": "1", "addr:street": "main street", "amenity": "place_of_worship", "denomination": "radha_krishna_temple", "religion": "hindu", "service_times": "6am to 7pm"}}, {"type": "node", "id": 5747596658, "lat": 18.7804349, "lon": 84.1278219, "tags": {"leisure": "park"}}, {"type": "node", "id": 5747657985, "lat": 18.7791553, "lon": 84.1271151, "tags": {"addr:city": "paralkhemundi", "addr:housenumber": "1", "addr:street": "entry way", "amenity": "hospital", "healthcare": "hospital", "name": "animal hospitel", "operator": "government"}}, {"type": "node", "id": 5751244387, "lat": 18.7792322, "lon": 84.1269418}, {"type": "node", "id": 5751244388, "lat": 18.779349, "lon": 84.1269096}, {"type": "node", "id": 5751244389, "lat": 18.7793338, "lon": 84.1270544}, {"type": "node", "id": 5751244390, "lat": 18.7791205, "lon": 84.1270169}, {"type": "node", "id": 5751244391, "lat": 18.7791662, "lon": 84.1269364}, {"type": "node", "id": 5751329667, "lat": 18.7792493, "lon": 84.1270395}, {"type": "node", "id": 5752031575, "lat": 18.8056848, "lon": 84.1407028, "tags": {"amenity": "place_of_worship", "name": "Temple", "religion": "hindu"}}, {"type": "node", "id": 5752256282, "lat": 19.0631887, "lon": 83.8266919, "tags": {"addr:city": "gunupur", "addr:postcode": "765022", "amenity": "place_of_worship", "name": "lord shiva temple", "religion": "hindu"}}, {"type": "node", "id": 5752256510, "lat": 19.0602294, "lon": 83.8229072, "tags": {"addr:city": "gunupur", "addr:postcode": "765022", "amenity": "place_of_worship", "denomination": "hindu", "name": "lord shiva temple", "religion": "hindu"}}, {"type": "node", "id": 5752256511, "lat": 19.0600441, "lon": 83.8228792, "tags": {"addr:city": "gunupur", "addr:postcode": "765022", "amenity": "place_of_worship", "denomination": "hindu", "name": "lord Ganesh temple", "religion": "hindu"}}, {"type": "node", "id": 5752256512, "lat": 19.0635979, "lon": 83.820313, "tags": {"addr:city": "Gunupur", "addr:postcode": "765022", "amenity": "bank", "atm": "yes", "name": "State Bank of India"}}, {"type": "node", "id": 5768590614, "lat": 19.0714918, "lon": 83.8087029, "tags": {"addr:city": "gunupur", "addr:postcode": "765022", "addr:street": "medical chowk", "amenity": "hospital", "healthcare": "hospital", "name": "government hospital"}}, {"type": "node", "id": 5768590634, "lat": 19.0704386, "lon": 83.8053872, "tags": {"addr:city": "gunupur", "addr:postcode": "765022", "addr:street": "netaji nagar", "amenity": "place_of_worship", "name": "sai temple", "religion": "hindu"}}, {"type": "node", "id": 5768604038, "lat": 19.0692592, "lon": 83.8122769, "tags": {"amenity": "bus_station", "bus": "yes", "description": "gunupur new bus stand", "name": "Gunupur Bus Station", "public_transport": "station"}}, {"type": "node", "id": 5768604040, "lat": 19.0717009, "lon": 83.8093118, "tags": {"addr:city": "gunupur", "addr:district": "Rayagada", "addr:full": "Near Police Station, Gunupur", "addr:postcode": "765022", "addr:state": "Odisha", "addr:street": "medical chowk", "addr:subdistrict": "Gunupur", "amenity": "hospital", "description": "Sub-District Hospital", "healthcare": "hospital", "name": "Govt. Hospital, Gunupur", "source": "OpenGovernmentData"}}, {"type": "node", "id": 5829165445, "lat": 18.7772519, "lon": 84.1219299}, {"type": "node", "id": 5829165446, "lat": 18.7772104, "lon": 84.1217872}, {"type": "node", "id": 5829165447, "lat": 18.7771584, "lon": 84.1217268}, {"type": "node", "id": 5829165448, "lat": 18.7771584, "lon": 84.1219354}, {"type": "node", "id": 5829165501, "lat": 18.7729357, "lon": 84.1225451}, {"type": "node", "id": 5829165502, "lat": 18.7730397, "lon": 84.1225349}, {"type": "node", "id": 5829165503, "lat": 18.7730479, "lon": 84.1226292}, {"type": "node", "id": 5829165504, "lat": 18.7729439, "lon": 84.1226394}, {"type": "node", "id": 6083341224, "lat": 18.8090618, "lon": 84.1372383}, {"type": "node", "id": 6083341225, "lat": 18.808818, "lon": 84.1385579}, {"type": "node", "id": 6083341226, "lat": 18.8096813, "lon": 84.1402852}, {"type": "node", "id": 6083341227, "lat": 18.8098946, "lon": 84.1424632}, {"type": "node", "id": 6083341228, "lat": 18.8098844, "lon": 84.1436005}, {"type": "node", "id": 6083341229, "lat": 18.8100367, "lon": 84.1453546}, {"type": "node", "id": 6083341230, "lat": 18.8100012, "lon": 84.145993}, {"type": "node", "id": 6083341231, "lat": 18.8094223, "lon": 84.1457784}, {"type": "node", "id": 6083341232, "lat": 18.8085895, "lon": 84.1449845}, {"type": "node", "id": 6083341233, "lat": 18.8075689, "lon": 84.1439787}, {"type": "node", "id": 6083341234, "lat": 18.8066777, "lon": 84.1430506}, {"type": "node", "id": 6083341235, "lat": 18.8064415, "lon": 84.1427368}, {"type": "node", "id": 6083341236, "lat": 18.8063933, "lon": 84.1427743}, {"type": "node", "id": 6083341237, "lat": 18.8059947, "lon": 84.1423452}, {"type": "node", "id": 6083341238, "lat": 18.806279, "lon": 84.142034}, {"type": "node", "id": 6083341239, "lat": 18.8058423, "lon": 84.1413689}, {"type": "node", "id": 6083341240, "lat": 18.8054361, "lon": 84.1411811}, {"type": "node", "id": 6083341241, "lat": 18.8047404, "lon": 84.1403979}, {"type": "node", "id": 6083341242, "lat": 18.8045525, "lon": 84.1408807}, {"type": "node", "id": 6083341243, "lat": 18.8039177, "lon": 84.1400921}, {"type": "node", "id": 6083341244, "lat": 18.8043951, "lon": 84.1385686}, {"type": "node", "id": 6083341245, "lat": 18.8046236, "lon": 84.1386169}, {"type": "node", "id": 6083341246, "lat": 18.8047455, "lon": 84.1380805}, {"type": "node", "id": 6083341247, "lat": 18.8050197, "lon": 84.1381609}, {"type": "node", "id": 6083341248, "lat": 18.8052634, "lon": 84.1364872}, {"type": "node", "id": 6083341308, "lat": 18.7735683, "lon": 84.0944302}, {"type": "node", "id": 6083341309, "lat": 18.7736241, "lon": 84.0941352}, {"type": "node", "id": 6083341706, "lat": 18.7728369, "lon": 84.0940601}, {"type": "node", "id": 6083341707, "lat": 18.7727505, "lon": 84.0948003}, {"type": "node", "id": 6083341708, "lat": 18.7732635, "lon": 84.0949398}, {"type": "node", "id": 6083341709, "lat": 18.7734057, "lon": 84.094398}, {"type": "node", "id": 6231498287, "lat": 18.8052069, "lon": 84.1387231, "tags": {"amenity": "cafe"}}, {"type": "node", "id": 6503131628, "lat": 18.8057905, "lon": 84.1405356}, {"type": "node", "id": 6503131629, "lat": 18.8058362, "lon": 84.1409594}, {"type": "node", "id": 6503131630, "lat": 18.8055468, "lon": 84.1408574}, {"type": "node", "id": 6503131631, "lat": 18.8055823, "lon": 84.1405892}, {"type": "node", "id": 6503131632, "lat": 18.8056534, "lon": 84.140557}, {"type": "node", "id": 6593020010, "lat": 18.7702158, "lon": 84.0941875, "tags": {"amenity": "cafe", "name": "ccd"}}, {"type": "node", "id": 6598401534, "lat": 18.7995005, "lon": 84.1339317, "tags": {"amenity": "school", "name": "palasa police station"}}, {"type": "node", "id": 6776348753, "lat": 18.7460504, "lon": 84.090317, "tags": {"addr:district": "Srikakulam", "addr:full": "All Andhra Road, Dno: 10-120, Pathapatnam", "addr:postcode": "532213", "addr:state": "Andhra Pradesh", "amenity": "hospital", "contact:mobile": "0894-6255251, 9966864184", "email": "info@kanakadurganursinghome.com", "name": "Kanaka Durga Nurisng Home", "source": "OpenGovernmentData", "website": "http://kanakadurganursinghome.com/"}}, {"type": "node", "id": 7062108338, "lat": 18.7796135, "lon": 84.0907483, "tags": {"addr:district": "Gajapati", "addr:full": "Paralakhemudi", "addr:postcode": "761200", "addr:state": "Odisha", "amenity": "clinic", "name": "V.V.L. Nursing Home", "source": "OpenGovernmentData"}}, {"type": "node", "id": 7062401302, "lat": 18.7716498, "lon": 84.0968126, "tags": {"addr:district": "Gajapati", "addr:full": "Friends Colony, Paralakhemundi", "addr:postcode": "761200", "addr:state": "Odisha", "amenity": "hospital", "name": "District Headquarter Hospital,Parlakhemundi, Gajapati", "source": "OpenGovernmentData"}}, {"type": "node", "id": 7115980652, "lat": 18.8101553, "lon": 83.9771349, "tags": {"addr:block": "Kothuru", "addr:district": "Srikakulam", "addr:full": "Towards Parlakhimundi Road, Kurigam", "addr:postcode": "532455", "addr:state": "Andhra Pradesh", "addr:street": "Hospital Street", "addr:subdistrict": "Kothuru Mandal", "amenity": "hospital", "contact:phone": "8946278845", "name": "Government Hospital,Kurigam", "source": "OpenGovernmentData"}}, {"type": "node", "id": 7115980676, "lat": 18.858466, "lon": 83.8454329, "tags": {"addr:district": "Srikakulam", "addr:full": "Near Solikiri, Baleru", "addr:postcode": "532455", "addr:state": "Andhra Pradesh", "addr:street": "Main Road", "addr:subdistrict": "Bhamini Mandal", "amenity": "hospital", "name": "Government Hospital, Baleru", "source": "OpenGovernmentData"}}, {"type": "node", "id": 7115980699, "lat": 18.7456769, "lon": 84.0845567, "tags": {"addr:district": "Srikakulam", "addr:full": "Near Court, Pathapatnam", "addr:postcode": "532213", "addr:state": "Andhra Pradesh", "addr:street": "Parlakhimidi Road", "addr:subdistrict": "Pathapatnam Mandal", "amenity": "hospital", "contact:phone": "8946255020", "name": "Government Hospital,Pathapatnam", "source": "OpenGovernmentData"}}, {"type": "node", "id": 7211991167, "lat": 19.0989011, "lon": 84.0491934, "tags": {"addr:district": "Gajapati", "addr:full": "Near Block Office, Nuagada Village", "addr:postcode": "761214", "addr:state": "Odisha", "addr:subdistrict": "Serango", "amenity": "hospital", "name": "Government Hospital Nuagada", "source": "OpenGovernmentData"}}, {"type": "node", "id": 7710220434, "lat": 18.7786028, "lon": 84.0900577, "tags": {"addr:district": "Gajapati", "addr:full": "Paralakhemundi", "addr:postcode": "761200", "addr:state": "Odhisa", "amenity": "clinic", "name": "Soumya Nursing Home", "source": "Local Knowledge"}}, {"type": "node", "id": 7710220458, "lat": 18.787406, "lon": 84.0861781, "tags": {"addr:district": "Gajapati", "addr:full": "Paralakhemundi", "addr:postcode": "761200", "addr:state": "Odhisa", "amenity": "clinic", "name": "Varasa Clinic", "source": "Local Knowledge"}}, {"type": "node", "id": 7710220460, "lat": 18.7801697, "lon": 84.0914163, "tags": {"addr:district": "Gajapati", "addr:full": "Paralakhemundi", "addr:postcode": "761200", "addr:state": "Odhisa", "amenity": "clinic", "name": "Murthi Nursing Home", "source": "Local Knowledge"}}, {"type": "node", "id": 7710220481, "lat": 18.7869168, "lon": 84.0877101, "tags": {"addr:district": "Gajapati", "addr:full": "Paralakhemundi", "addr:postcode": "761200", "addr:state": "Odhisa", "amenity": "clinic", "name": "Sara Eye Care", "source": "Local Knowledge"}}, {"type": "node", "id": 7710220506, "lat": 18.7780021, "lon": 84.0870383, "tags": {"addr:district": "Gajapati", "addr:full": "Gajapati Marga, Paralakhemundi", "addr:postcode": "761200", "addr:state": "Odhisa", "amenity": "hospital", "name": "Dr. Ravi's Hospital", "source": "Local Knowledge"}}, {"type": "node", "id": 7710220508, "lat": 18.7783347, "lon": 84.0872251, "tags": {"addr:district": "Gajapati", "addr:full": "Paralakhemundi", "addr:postcode": "761200", "addr:state": "Odhisa", "amenity": "clinic", "name": "Aliva Pathology Clinic", "source": "Local Knowledge"}}, {"type": "node", "id": 7710220515, "lat": 18.7802217, "lon": 84.0914368, "tags": {"addr:district": "Gajapati", "addr:full": "Paralakhemundi", "addr:postcode": "761200", "addr:state": "Odhisa", "amenity": "clinic", "name": "Laxmi Nursing Home", "source": "Local Knowledge"}}, {"type": "node", "id": 7710220516, "lat": 18.7823981, "lon": 84.0857302, "tags": {"addr:district": "Gajapati", "addr:full": "Paralakhemundi", "addr:postcode": "761200", "addr:state": "Odhisa", "amenity": "hospital", "name": "City Hospital", "source": "Local Knowledge"}}, {"type": "node", "id": 7710220517, "lat": 18.7772847, "lon": 84.0731417, "tags": {"addr:district": "Gajapati", "addr:full": "Ranipeta", "addr:postcode": "761200", "addr:state": "Odhisa", "amenity": "hospital", "name": "Ranipeta Eye Hospital", "source": "Local Knowledge"}}, {"type": "node", "id": 9748708344, "lat": 18.7462476, "lon": 83.8978559}, {"type": "node", "id": 9748708345, "lat": 18.7462705, "lon": 83.8980992}, {"type": "node", "id": 9748708346, "lat": 18.7461473, "lon": 83.8981159}, {"type": "node", "id": 9748708347, "lat": 18.746128, "lon": 83.8978466}, {"type": "node", "id": 9748708348, "lat": 18.7461456, "lon": 83.8978503}, {"type": "node", "id": 9748708349, "lat": 18.7461921, "lon": 83.8979679, "tags": {"amenity": "hospital", "healthcare": "hospital", "name": "Care Hospatial"}}, {"type": "node", "id": 9928751470, "lat": 18.7639728, "lon": 83.8577474, "tags": {"amenity": "school"}}, {"type": "node", "id": 10831644360, "lat": 18.7740365, "lon": 84.1739357, "tags": {"amenity": "bus_station", "bus": "yes", "name": "Meliaputti  X Roads Bus Stop", "public_transport": "station"}}, {"type": "node", "id": 10831646060, "lat": 18.7598787, "lon": 84.0969843, "tags": {"amenity": "bus_station", "bus": "yes", "name": "APSRTC Bus Station , Pathapatnam", "operator": "Government", "public_transport": "station"}}, {"type": "node", "id": 10831654151, "lat": 18.7872445, "lon": 84.0888505, "tags": {"amenity": "bus_station", "bus": "yes", "name": "Parlakhemundi Bus Station", "public_transport": "station"}}, {"type": "node", "id": 10831660816, "lat": 18.7734826, "lon": 84.0979661, "tags": {"amenity": "bus_station", "bus": "yes", "name": "Parlakhemundi Three Road Junction Bus Stop", "public_transport": "station"}}, {"type": "node", "id": 10831739835, "lat": 19.0122688, "lon": 83.7857448, "tags": {"amenity": "bus_station", "bus": "yes", "name": "Bathili Bus Stop", "public_transport": "station"}}, {"type": "node", "id": 10831740298, "lat": 18.8141848, "lon": 83.9448783, "tags": {"amenity": "bus_station", "bus": "yes", "name": "Hadduhbangi Bus Stop", "public_transport": "station"}}, {"type": "node", "id": 10831769068, "lat": 18.8587319, "lon": 83.8812094, "tags": {"amenity": "bus_station", "bus": "yes", "name": "Kashinagar Bus Stop", "public_transport": "station"}}, {"type": "node", "id": 10831770007, "lat": 18.7781482, "lon": 83.8781798, "tags": {"amenity": "bus_station", "bus": "yes", "name": "APSRTC Bus Station , Kotturu", "public_transport": "station"}}, {"type": "node", "id": 10831787209, "lat": 18.7483845, "lon": 84.0901282, "tags": {"amenity": "bus_station", "bus": "yes", "name": "Pathapatnam Bus Stop", "public_transport": "station"}}, {"type": "node", "id": 10837784446, "lat": 18.8313354, "lon": 83.7084829, "tags": {"amenity": "bus_station", "bus": "yes", "name": "Nilakanthapuram Bus Stop", "public_transport": "station"}}, {"type": "node", "id": 11026164177, "lat": 19.03144, "lon": 83.7707986, "tags": {"amenity": "bus_station", "bus": "yes", "name": "Battili / Gunupur X Roads Bus Stop", "public_transport": "station"}}, {"type": "node", "id": 11238196632, "lat": 18.752044, "lon": 84.0804511, "tags": {"amenity": "place_of_worship", "name": "Sri Neelakanteswara Swamy Temple", "religion": "hindu"}}, {"type": "node", "id": 11294592101, "lat": 18.7596974, "lon": 83.9732557, "tags": {"amenity": "school", "name": "Mandal Parishad Primary School , Anguru"}}, {"type": "node", "id": 11422397025, "lat": 18.7267541, "lon": 83.9416118, "tags": {"amenity": "bus_station", "bus": "yes", "name": "Shasthrulupeta Bus Stop", "public_transport": "station"}}, {"type": "node", "id": 11431684092, "lat": 18.772285, "lon": 83.8663205, "tags": {"amenity": "college", "name": "Sri Venkateswara Degree College Kotturu"}}, {"type": "node", "id": 11446241623, "lat": 18.7212022, "lon": 83.7153904, "tags": {"amenity": "bus_station", "bus": "yes", "name": "Gujji Bus Stop", "public_transport": "station"}}, {"type": "node", "id": 11499833848, "lat": 18.7363022, "lon": 83.7107143, "tags": {"amenity": "bus_station", "bus": "yes", "name": "Kadula Viraghottam Bus Stop", "public_transport": "station"}}, {"type": "node", "id": 11664578326, "lat": 18.7394543, "lon": 84.0891768, "tags": {"amenity": "school", "name": "AP Model School, Pathapatnam"}}, {"type": "node", "id": 11664578344, "lat": 18.7377362, "lon": 84.0873203}, {"type": "node", "id": 11664578345, "lat": 18.7385105, "lon": 84.0871338}, {"type": "node", "id": 11664578346, "lat": 18.7414113, "lon": 84.0898459}, {"type": "node", "id": 11664578347, "lat": 18.740988, "lon": 84.0904345}, {"type": "node", "id": 11664578348, "lat": 18.7392875, "lon": 84.0892498}, {"type": "node", "id": 11947311307, "lat": 18.8837133, "lon": 83.7123229, "tags": {"amenity": "bus_station", "bus": "yes", "name": "Chappagottili Bus Stop", "public_transport": "station"}}, {"type": "node", "id": 11947311326, "lat": 18.7706242, "lon": 83.724667, "tags": {"amenity": "bus_station", "bus": "yes", "name": "Gadidapaiv Bus Stop", "public_transport": "station"}}, {"type": "node", "id": 11947311330, "lat": 18.7440383, "lon": 83.7237188, "tags": {"amenity": "bus_station", "bus": "yes", "name": "Donubai Bus Stop", "public_transport": "station"}}, {"type": "node", "id": 11947311331, "lat": 18.7346585, "lon": 83.7605102, "tags": {"amenity": "bus_station", "bus": "yes", "name": "Gumada Bus Stop", "public_transport": "station"}}, {"type": "node", "id": 11967158208, "lat": 18.876001, "lon": 83.7332008, "tags": {"amenity": "bus_station", "bus": "yes", "name": "Lankajodu Bus Stop", "public_transport": "station"}}, {"type": "node", "id": 11967158213, "lat": 18.8737626, "lon": 83.7396694, "tags": {"amenity": "bus_station", "bus": "yes", "name": "Valasaballeru Bus Stop", "public_transport": "station"}}, {"type": "node", "id": 11967158244, "lat": 18.8533922, "lon": 83.7880881, "tags": {"amenity": "bus_station", "bus": "yes", "name": "Avuri Bus Stop", "public_transport": "station"}}, {"type": "node", "id": 11967158258, "lat": 18.8424763, "lon": 83.8039254, "tags": {"amenity": "bus_station", "bus": "yes", "name": "Tittiri Bus Stop", "public_transport": "station"}}, {"type": "node", "id": 12104203631, "lat": 18.7922751, "lon": 83.9701297}, {"type": "node", "id": 12104203632, "lat": 18.7920059, "lon": 83.9698776}, {"type": "node", "id": 12104203633, "lat": 18.7914016, "lon": 83.9706232}, {"type": "node", "id": 12104203634, "lat": 18.7921227, "lon": 83.9707466}, {"type": "node", "id": 12104211679, "lat": 18.7891632, "lon": 83.9655498, "tags": {"amenity": "place_of_worship", "name": "agroramamma chettu", "religion": "hindu"}}, {"type": "node", "id": 12397748736, "lat": 18.73942, "lon": 84.0796383}, {"type": "node", "id": 12397748737, "lat": 18.7395365, "lon": 84.0797026}, {"type": "node", "id": 12397748738, "lat": 18.7394891, "lon": 84.0799987}, {"type": "node", "id": 12397748739, "lat": 18.7394309, "lon": 84.0802297}, {"type": "node", "id": 12397748740, "lat": 18.7393726, "lon": 84.0802733}, {"type": "node", "id": 12397748741, "lat": 18.7390912, "lon": 84.0802016}, {"type": "node", "id": 12397748742, "lat": 18.739135, "lon": 84.0799601}, {"type": "node", "id": 12397748743, "lat": 18.7391978, "lon": 84.0798098}, {"type": "node", "id": 12397748744, "lat": 18.7392011, "lon": 84.0796925}, {"type": "node", "id": 12497422560, "lat": 19.060187, "lon": 83.8243982}, {"type": "node", "id": 12497422561, "lat": 19.0610917, "lon": 83.8233859}, {"type": "node", "id": 12497422562, "lat": 19.0614934, "lon": 83.8240154}, {"type": "node", "id": 12497422563, "lat": 19.0607083, "lon": 83.8249207}, {"type": "node", "id": 12497422597, "lat": 19.0491852, "lon": 83.8305247}, {"type": "node", "id": 12497422598, "lat": 19.0510376, "lon": 83.8344997}, {"type": "node", "id": 12497422599, "lat": 19.0499409, "lon": 83.8349622}, {"type": "node", "id": 12497422600, "lat": 19.0503262, "lon": 83.8369144}, {"type": "node", "id": 12497422601, "lat": 19.0473027, "lon": 83.8375181}, {"type": "node", "id": 12497422602, "lat": 19.04628, "lon": 83.8377924}, {"type": "node", "id": 12497422603, "lat": 19.0447238, "lon": 83.8354091}, {"type": "node", "id": 12497422604, "lat": 19.0449164, "lon": 83.8331904}, {"type": "node", "id": 12497422605, "lat": 19.0485106, "lon": 83.8305249}, {"type": "node", "id": 12497422765, "lat": 19.0299238, "lon": 83.8321591}, {"type": "node", "id": 12497422766, "lat": 19.0300977, "lon": 83.8325934}, {"type": "node", "id": 12497422767, "lat": 19.0295132, "lon": 83.8327148}, {"type": "node", "id": 12497422768, "lat": 19.0295828, "lon": 83.8332853}, {"type": "node", "id": 12497422769, "lat": 19.0280544, "lon": 83.8338203}, {"type": "node", "id": 12497422770, "lat": 19.0279358, "lon": 83.8323934}, {"type": "node", "id": 12497422771, "lat": 19.0289956, "lon": 83.8320641}, {"type": "node", "id": 12497423145, "lat": 18.9774098, "lon": 83.8659028}, {"type": "node", "id": 12497423146, "lat": 18.9778117, "lon": 83.8653739}, {"type": "node", "id": 12497423147, "lat": 18.9785451, "lon": 83.8655946}, {"type": "node", "id": 12497423148, "lat": 18.9780756, "lon": 83.8663798}, {"type": "node", "id": 12497423149, "lat": 18.9772257, "lon": 83.8671293}, {"type": "node", "id": 12497423150, "lat": 18.9767869, "lon": 83.8670158}, {"type": "node", "id": 12497423151, "lat": 18.9767654, "lon": 83.86674}, {"type": "node", "id": 12497423152, "lat": 18.9769127, "lon": 83.8662695}, {"type": "node", "id": 12497423174, "lat": 18.975814, "lon": 83.8700065}, {"type": "node", "id": 12497423175, "lat": 18.976446, "lon": 83.8708665}, {"type": "node", "id": 12497423176, "lat": 18.9757973, "lon": 83.8712952}, {"type": "node", "id": 12497423177, "lat": 18.9756447, "lon": 83.8712119}, {"type": "node", "id": 12497423178, "lat": 18.9754062, "lon": 83.8711539}, {"type": "node", "id": 12497423179, "lat": 18.9752607, "lon": 83.870357}, {"type": "node", "id": 12497423180, "lat": 18.9753394, "lon": 83.870236}, {"type": "node", "id": 12989241970, "lat": 18.7591205, "lon": 84.0493628}, {"type": "node", "id": 12989241971, "lat": 18.7590023, "lon": 84.049355}, {"type": "node", "id": 12989241972, "lat": 18.7590117, "lon": 84.0491971}, {"type": "node", "id": 12989241973, "lat": 18.7591299, "lon": 84.049205}, {"type": "node", "id": 12989300660, "lat": 18.7568187, "lon": 84.0488444}, {"type": "node", "id": 12989300661, "lat": 18.7568171, "lon": 84.0489621}, {"type": "node", "id": 12989300662, "lat": 18.7567537, "lon": 84.0489611}, {"type": "node", "id": 12989300663, "lat": 18.7567553, "lon": 84.0488434}, {"type": "node", "id": 12989300664, "lat": 18.756776, "lon": 84.0492138}, {"type": "node", "id": 12989300665, "lat": 18.756776, "lon": 84.0492433}, {"type": "node", "id": 12989300666, "lat": 18.7566972, "lon": 84.0492567}, {"type": "node", "id": 12989300667, "lat": 18.7566956, "lon": 84.0492176}, {"type": "node", "id": 13028422584, "lat": 18.7483928, "lon": 84.0900584}, {"type": "node", "id": 13028422585, "lat": 18.7484852, "lon": 84.0901455}, {"type": "node", "id": 13028422586, "lat": 18.7484236, "lon": 84.0902163}, {"type": "node", "id": 13028422587, "lat": 18.7483312, "lon": 84.0900886}, {"type": "node", "id": 13478399215, "lat": 18.7451425, "lon": 84.0909654, "tags": {"amenity": "place_of_worship", "name": "Shiridi Giri Sainadha Temple , Pathapathapatnam", "religion": "hindu"}}, {"type": "node", "id": 13614078426, "lat": 18.9088089, "lon": 83.8164261}, {"type": "node", "id": 13614078427, "lat": 18.908955, "lon": 83.8178681}, {"type": "node", "id": 13614078428, "lat": 18.9080781, "lon": 83.8177994}, {"type": "node", "id": 13614078429, "lat": 18.9074231, "lon": 83.8173073}, {"type": "node", "id": 13614078430, "lat": 18.9054147, "lon": 83.8179138}, {"type": "node", "id": 13614078431, "lat": 18.9050574, "lon": 83.8170613}, {"type": "node", "id": 13614078432, "lat": 18.9086086, "lon": 83.8160771}, {"type": "node", "id": 13703042041, "lat": 18.9131082, "lon": 83.8096708}, {"type": "node", "id": 13703042042, "lat": 18.9129758, "lon": 83.8107156}, {"type": "node", "id": 13703042043, "lat": 18.9122521, "lon": 83.8106323}, {"type": "node", "id": 13703042044, "lat": 18.9121845, "lon": 83.8107603}, {"type": "node", "id": 13703042045, "lat": 18.9117705, "lon": 83.810668}, {"type": "node", "id": 13703042046, "lat": 18.9118015, "lon": 83.8098464}, {"type": "node", "id": 13703042047, "lat": 18.9120662, "lon": 83.8096053}, {"type": "node", "id": 13703042048, "lat": 18.9126351, "lon": 83.8094178}, {"type": "way", "id": 606655792, "nodes": [5751244387, 5751244388, 5751244389, 5751329667, 5751244390, 5751244391, 5751244387], "tags": {"addr:city": "paralkhemundi", "addr:housenumber": "1", "addr:street": "entry way", "amenity": "school", "building": "yes", "building:levels": "1", "height": "3"}}, {"type": "way", "id": 616569682, "nodes": [5829165445, 5829165446, 5829165447, 5829165448, 5829165445], "tags": {"amenity": "place_of_worship", "building": "yes", "name": "temple", "religion": "hindu"}}, {"type": "way", "id": 616569695, "nodes": [5829165501, 5829165502, 5829165503, 5829165504, 5829165501], "tags": {"amenity": "place_of_worship", "building": "church", "religion": "christian"}}, {"type": "way", "id": 647847012, "nodes": [6083341248, 6083341247, 6083341246, 6083341245, 6083341244, 6083341243, 6083341242, 6083341241, 6083341240, 6083341239, 6083341238, 6083341237, 6083341236, 6083341235, 5528211718, 6083341234, 6083341233, 6083341232, 6083341231, 6083341230, 6083341229, 6083341228, 6083341227, 6083341226, 6083341225, 6083341224, 6083341248], "tags": {"addr:city": "paralakhemundi", "addr:postcode": "761200", "amenity": "college", "name": "Centurion University"}}, {"type": "way", "id": 647847027, "nodes": [6083341309, 6083341308, 6083341709, 6083341708, 6083341707, 6083341706, 6083341309], "tags": {"amenity": "school"}}, {"type": "way", "id": 692683831, "nodes": [6503131628, 6503131629, 6503131630, 6503131631, 6503131632, 6503131628], "tags": {"amenity": "place_of_worship", "building": "yes"}}, {"type": "way", "id": 1061023465, "nodes": [9748708344, 9748708345, 9748708346, 9748708347, 9748708348, 9748708344], "tags": {"amenity": "hospital", "healthcare": "hospital"}}, {"type": "way", "id": 1254795725, "nodes": [11664578344, 11664578345, 11664578346, 11664578347, 11664578348, 11664578344], "tags": {"amenity": "school", "name": "AP Model School, Pathapatnam"}}, {"type": "way", "id": 1307028527, "nodes": [12104203631, 12104203632, 12104203633, 12104203634, 12104203631], "tags": {"addr:city": "KOTTURU", "addr:district": "SRIKAKULAM", "addr:postcode": "532457", "addr:region": "locsated on the top of the hill", "amenity": "place_of_worship", "building": "yes", "name": "VENKATSWARA SWAMY", "religion": "hindu"}}, {"type": "way", "id": 1340279305, "nodes": [12397748736, 12397748737, 12397748738, 12397748739, 12397748740, 12397748741, 12397748742, 12397748743, 12397748744, 12397748736], "tags": {"amenity": "place_of_worship", "building": "yes", "name": "Neelamani Ammavari Temple , Pathapatnam", "religion": "hindu"}}, {"type": "way", "id": 1350822559, "nodes": [12497422560, 12497422561, 12497422562, 12497422563, 12497422560], "tags": {"amenity": "college", "name": "Gunupur College"}}, {"type": "way", "id": 1350822564, "nodes": [12497422597, 12497422598, 12497422599, 12497422600, 12497422601, 12497422602, 12497422603, 12497422604, 12497422605, 12497422597], "tags": {"amenity": "university", "name": "GIET University"}}, {"type": "way", "id": 1350822579, "nodes": [12497422765, 12497422766, 12497422767, 12497422768, 12497422769, 12497422770, 12497422771, 12497422765], "tags": {"amenity": "college", "name": "Gayatri Institute of Science and Technology"}}, {"type": "way", "id": 1350822616, "nodes": [12497423145, 12497423146, 12497423147, 12497423148, 12497423149, 12497423150, 12497423151, 12497423152, 12497423145], "tags": {"amenity": "school", "name": "Odisha Adarsha Vidyalala"}}, {"type": "way", "id": 1350822619, "nodes": [12497423174, 12497423175, 12497423176, 12497423177, 12497423178, 12497423179, 12497423180, 12497423174], "tags": {"amenity": "school", "name": "Vijayananda Uchha Vidyalaya"}}, {"type": "way", "id": 1413442573, "nodes": [12989241970, 12989241971, 12989241972, 12989241973, 12989241970], "tags": {"amenity": "place_of_worship", "building": "yes", "name": "sivalayam", "religion": "hindu"}}, {"type": "way", "id": 1413443301, "nodes": [12989300660, 12989300661, 12989300662, 12989300663, 12989300660], "tags": {"amenity": "place_of_worship", "building": "yes", "name": "ramalayam", "religion": "hindu"}}, {"type": "way", "id": 1413443490, "nodes": [12989300664, 12989300665, 12989300666, 12989300667, 12989300664], "tags": {"amenity": "place_of_worship", "building": "yes", "name": "hanuman temple", "religion": "hindu"}}, {"type": "way", "id": 1417729915, "nodes": [13028422584, 13028422585, 13028422586, 13028422587, 13028422584], "tags": {"amenity": "bus_station", "bus": "yes", "public_transport": "station"}}, {"type": "way", "id": 1484884309, "nodes": [13614078426, 13614078427, 13614078428, 13614078429, 13614078430, 13614078431, 13614078432, 13614078426], "tags": {"amenity": "school", "education": "school", "name": "APSWREIS Jr. College(Girls), Bhamini | \u0c05\u0c2a\u0c4d\u0c38\u0c4d\u0c35\u0c4d\u0c30\u0c47\u0c07\u0c38\u0c4d Jr. \u0c15\u0c3e\u0c32\u0c47\u0c1c\u0c4d, \u0c2d\u0c3e\u0c2e\u0c3f\u0c28\u0c3f"}}, {"type": "way", "id": 1495786749, "nodes": [13703042041, 13703042042, 13703042043, 13703042044, 13703042045, 13703042046, 13703042047, 13703042048, 13703042041], "tags": {"amenity": "school", "education": "school", "name": "AP Model School and Junior College , Bhamini"}}]}